Vers 57
USE_SERIAL_FEEDBACK=false
DEVELOPMENT_MODE=false
USE_RMC_ONLY=false

$GPRMC,213431.000,A,4305.1609,N,07740.8753,W,0.03,343.00,190319,,,A*7F
$GPGGA,213431.200,4305.1609,N,07740.8754,W,1,10,0.92,148.5,M,-34.4,M,,*50
lng=-77.681259, lat=43.086017, altitude=147.40, speed=0.03, satellites=10, angle=343.0000, fixquality=1
$GPRMC,213431.400,A,4305.1608,N,07740.8754,W,0.01,339.50,190319,,,A*77
$GPGGA,213431.600,4305.1608,N,07740.8755,W,1,10,0.92,149.3,M,-34.4,M,,*53
lng=-77.681259, lat=43.086009, altitude=148.50, speed=0.01, satellites=10, angle=339.5000, fixquality=1
$GPRMC,213431.800,A,4305.1608,N,07740.8755,W,0.02,319.54,190319,,,A*7F
$GPGGA,213432.000,4305.1608,N,07740.8755,W,1,10,0.92,149.9,M,-34.4,M,,*5C
lng=-77.681259, lat=43.086009, altitude=149.30, speed=0.02, satellites=10, angle=319.5400, fixquality=1
$GPRMC,213432.200,A,4305.1608,N,07740.8755,W,0.04,31.89,190319,,,A*49
$GPGGA,213432.400,4305.1608,N,07740.8755,W,1,10,0.92,150.0,M,-34.4,M,,*59
lng=-77.681259, lat=43.086009, altitude=149.90, speed=0.04, satellites=10, angle=31.8900, fixquality=1
$GPRMC,213432.600,A,4305.1608,N,07740.8754,W,0.01,319.83,190319,,,A*7A
$GPGGA,213432.800,4305.1608,N,07740.8754,W,1,10,0.92,150.1,M,-34.4,M,,*55
lng=-77.681259, lat=43.086009, altitude=150.00, speed=0.01, satellites=10, angle=319.8300, fixquality=1
$GPRMC,213433.000,A,4305.1608,N,07740.8754,W,0.02,168.31,190319,,,A*73
$GPGGA,213433.200,4305.1607,N,07740.8753,W,1,10,0.92,150.6,M,-34.4,M,,*51
lng=-77.681259, lat=43.086009, altitude=150.10, speed=0.02, satellites=10, angle=168.3100, fixquality=1
$GPRMC,213433.400,A,4305.1607,N,07740.8753,W,0.01,314.01,190319,,,A*76
$GPGGA,213433.600,4305.1607,N,07740.8753,W,1,10,0.92,151.1,M,-34.4,M,,*53
lng=-77.681259, lat=43.086009, altitude=150.60, speed=0.01, satellites=10, angle=314.0100, fixquality=1
$GPRMC,213433.800,A,4305.1607,N,07740.8753,W,0.01,196.35,190319,,,A*75
$GPGGA,213434.000,4305.1607,N,07740.8752,W,1,10,0.92,151.4,M,-34.4,M,,*56
lng=-77.681259, lat=43.086009, altitude=151.10, speed=0.01, satellites=10, angle=196.3500, fixquality=1
$GPRMC,213434.200,A,4305.1607,N,07740.8752,W,0.02,337.07,190319,,,A*72
$GPGGA,213434.400,4305.1607,N,07740.8752,W,1,10,0.92,151.8,M,-34.4,M,,*5E
lng=-77.681251, lat=43.086009, altitude=151.40, speed=0.02, satellites=10, angle=337.0700, fixquality=1
$GPRMC,213434.600,A,4305.1607,N,07740.8752,W,0.03,126.16,190319,,,A*75
$GPGGA,213434.800,4305.1607,N,07740.8752,W,1,10,0.92,152.2,M,-34.4,M,,*5B
lng=-77.681251, lat=43.086009, altitude=151.80, speed=0.03, satellites=10, angle=126.1600, fixquality=1
$GPRMC,213435.000,A,4305.1607,N,07740.8752,W,0.01,312.16,190319,,,A*75
$GPGGA,213435.200,4305.1607,N,07740.8752,W,1,09,1.05,152.6,M,-34.4,M,,*53
lng=-77.681251, lat=43.086009, altitude=152.20, speed=0.01, satellites=10, angle=312.1600, fixquality=1
$GPRMC,213435.400,A,4305.1607,N,07740.8751,W,0.02,72.23,190319,,,A*42
$GPGGA,213435.600,4305.1607,N,07740.8751,W,1,09,1.05,153.1,M,-34.4,M,,*52
lng=-77.681251, lat=43.086009, altitude=152.60, speed=0.02, satellites=9, angle=72.2300, fixquality=1
$GPRMC,213435.800,A,4305.1607,N,07740.8751,W,0.01,196.97,190319,,,A*79
$GPGGA,213436.000,4305.1607,N,07740.8751,W,1,09,1.05,153.4,M,-34.4,M,,*52
lng=-77.681251, lat=43.086009, altitude=153.10, speed=0.01, satellites=9, angle=196.9700, fixquality=1
$GPRMC,213436.200,A,4305.1607,N,07740.8751,W,0.01,337.01,190319,,,A*76
$GPGGA,213436.400,4305.1607,N,07740.8751,W,1,09,1.05,153.7,M,-34.4,M,,*55
lng=-77.681251, lat=43.086009, altitude=153.40, speed=0.01, satellites=9, angle=337.0100, fixquality=1
$GPRMC,213436.600,A,4305.1607,N,07740.8751,W,0.03,64.05,190319,,,A*41
$GPGGA,213436.800,4305.1607,N,07740.8751,W,1,09,1.05,154.0,M,-34.4,M,,*59
lng=-77.681251, lat=43.086009, altitude=153.70, speed=0.03, satellites=9, angle=64.0500, fixquality=1
$GPRMC,213437.000,A,4305.1607,N,07740.8751,W,0.01,159.36,190319,,,A*7B
$GPGGA,213437.200,4305.1607,N,07740.8751,W,1,09,1.05,154.2,M,-34.4,M,,*50
lng=-77.681251, lat=43.086009, altitude=154.00, speed=0.01, satellites=9, angle=159.3600, fixquality=1
$GPRMC,213437.400,A,4305.1607,N,07740.8751,W,0.01,233.15,190319,,,A*71
$GPGGA,213437.600,4305.1606,N,07740.8751,W,1,09,1.05,154.5,M,-34.4,M,,*52
lng=-77.681251, lat=43.086009, altitude=154.20, speed=0.01, satellites=9, angle=233.1500, fixquality=1
$GPRMC,213437.800,A,4305.1606,N,07740.8751,W,0.00,0.00,190319,,,A*7B
$GPGGA,213438.000,4305.1606,N,07740.8750,W,1,09,1.07,154.7,M,-34.4,M,,*5A
lng=-77.681251, lat=43.086009, altitude=154.50, speed=0.00, satellites=9, angle=0.0000, fixquality=1
$GPRMC,213438.200,A,4305.1606,N,07740.8750,W,0.01,29.99,190319,,,A*45
$GPGGA,213438.400,4305.1606,N,07740.8750,W,1,09,1.05,155.0,M,-34.4,M,,*5A
lng=-77.681251, lat=43.086009, altitude=154.70, speed=0.01, satellites=9, angle=29.9900, fixquality=1
$GPRMC,213438.600,A,4305.1606,N,07740.8750,W,0.01,75.02,190319,,,A*4A
$GPGGA,213438.800,4305.1606,N,07740.8750,W,1,09,1.05,155.2,M,-34.4,M,,*54
lng=-77.681251, lat=43.086009, altitude=155.00, speed=0.01, satellites=9, angle=75.0200, fixquality=1
$GPRMC,213439.000,A,4305.1607,N,07740.8750,W,0.01,357.51,190319,,,A*79
$GPGGA,213439.200,4305.1607,N,07740.8750,W,1,09,1.07,155.4,M,-34.4,M,,*5A
lng=-77.681251, lat=43.086009, altitude=155.20, speed=0.01, satellites=9, angle=357.5100, fixquality=1
$GPRMC,213439.400,A,4305.1607,N,07740.8750,W,0.02,340.90,190319,,,A*75
$GPGGA,213439.600,4305.1607,N,07740.8749,W,1,09,1.05,155.6,M,-34.4,M,,*56
lng=-77.681251, lat=43.086009, altitude=155.40, speed=0.02, satellites=9, angle=340.9000, fixquality=1
$GPRMC,213439.800,A,4305.1607,N,07740.8749,W,0.02,30.90,190319,,,A*45
$GPGGA,213440.000,4305.1607,N,07740.8749,W,1,09,1.05,155.8,M,-34.4,M,,*50
lng=-77.681251, lat=43.086009, altitude=155.60, speed=0.02, satellites=9, angle=30.9000, fixquality=1
$GPRMC,213440.200,A,4305.1607,N,07740.8749,W,0.01,34.88,190319,,,A*4F
$GPGGA,213440.400,4305.1607,N,07740.8748,W,1,09,1.05,156.1,M,-34.4,M,,*5F
lng=-77.681251, lat=43.086009, altitude=155.80, speed=0.01, satellites=9, angle=34.8800, fixquality=1
$GPRMC,213440.600,A,4305.1607,N,07740.8748,W,0.01,78.10,190319,,,A*43
$GPGGA,213440.800,4305.1607,N,07740.8748,W,1,09,1.05,156.2,M,-34.4,M,,*50
lng=-77.681251, lat=43.086009, altitude=156.10, speed=0.01, satellites=9, angle=78.1000, fixquality=1
$GPRMC,213441.000,A,4305.1608,N,07740.8748,W,0.01,184.82,190319,,,A*72
$GPGGA,213441.200,4305.1608,N,07740.8748,W,1,09,1.05,156.4,M,-34.4,M,,*52
lng=-77.681251, lat=43.086009, altitude=156.20, speed=0.01, satellites=9, angle=184.8200, fixquality=1
$GPRMC,213441.400,A,4305.1608,N,07740.8748,W,0.01,100.93,190319,,,A*7A
$GPGGA,213441.600,4305.1608,N,07740.8748,W,1,09,1.05,156.5,M,-34.4,M,,*57
lng=-77.681251, lat=43.086009, altitude=156.40, speed=0.01, satellites=9, angle=100.9300, fixquality=1
$GPRMC,213441.800,A,4305.1608,N,07740.8748,W,0.01,121.41,190319,,,A*7A
$GPGGA,213442.000,4305.1609,N,07740.8748,W,1,09,1.05,156.6,M,-34.4,M,,*50
lng=-77.681251, lat=43.086009, altitude=156.50, speed=0.01, satellites=9, angle=121.4100, fixquality=1
$GPRMC,213442.200,A,4305.1609,N,07740.8748,W,0.00,46.28,190319,,,A*4C
$GPGGA,213442.400,4305.1609,N,07740.8748,W,1,09,1.06,156.7,M,-34.4,M,,*56
lng=-77.681251, lat=43.086017, altitude=156.60, speed=0.00, satellites=9, angle=46.2800, fixquality=1
$GPRMC,213442.600,A,4305.1609,N,07740.8748,W,0.00,64.75,190319,,,A*40
$GPGGA,213442.800,4305.1609,N,07740.8748,W,1,09,1.06,156.8,M,-34.4,M,,*55
lng=-77.681251, lat=43.086017, altitude=156.70, speed=0.00, satellites=9, angle=64.7500, fixquality=1
$GPRMC,213443.000,A,4305.1610,N,07740.8748,W,0.01,270.85,190319,,,A*76
$GPGGA,213443.200,4305.1610,N,07740.8748,W,1,09,1.06,156.9,M,-34.4,M,,*57
lng=-77.681251, lat=43.086017, altitude=156.80, speed=0.01, satellites=9, angle=270.8500, fixquality=1
$GPRMC,213443.400,A,4305.1610,N,07740.8748,W,0.02,216.57,190319,,,A*7E
$GPGGA,213443.600,4305.1610,N,07740.8748,W,1,09,1.06,156.9,M,-34.4,M,,*53
lng=-77.681251, lat=43.086017, altitude=156.90, speed=0.02, satellites=9, angle=216.5700, fixquality=1
$GPRMC,213443.800,A,4305.1611,N,07740.8748,W,0.01,152.69,190319,,,A*7E
$GPGGA,213444.000,4305.1611,N,07740.8748,W,1,09,1.06,156.9,M,-34.4,M,,*53
lng=-77.681251, lat=43.086017, altitude=156.90, speed=0.01, satellites=9, angle=152.6900, fixquality=1
$GPRMC,213444.200,A,4305.1611,N,07740.8748,W,0.01,172.04,190319,,,A*7A
$GPGGA,213444.400,4305.1611,N,07740.8748,W,1,09,1.05,156.9,M,-34.4,M,,*54
lng=-77.681251, lat=43.086017, altitude=156.90, speed=0.01, satellites=9, angle=172.0400, fixquality=1
$GPRMC,213444.600,A,4305.1611,N,07740.8748,W,0.01,91.10,190319,,,A*47
$GPGGA,213444.800,4305.1611,N,07740.8749,W,1,09,1.05,156.9,M,-34.4,M,,*59
lng=-77.681251, lat=43.086017, altitude=156.90, speed=0.01, satellites=9, angle=91.1000, fixquality=1
$GPRMC,213445.000,A,4305.1612,N,07740.8749,W,0.01,177.04,190319,,,A*7E
$GPGGA,213445.200,4305.1612,N,07740.8749,W,1,09,1.06,156.9,M,-34.4,M,,*52
lng=-77.681251, lat=43.086017, altitude=156.90, speed=0.01, satellites=9, angle=177.0400, fixquality=1
$GPRMC,213445.400,A,4305.1612,N,07740.8748,W,0.04,126.46,190319,,,A*7C
$GPGGA,213445.600,4305.1612,N,07740.8749,W,1,09,1.06,156.9,M,-34.4,M,,*56
lng=-77.681251, lat=43.086017, altitude=156.90, speed=0.04, satellites=9, angle=126.4600, fixquality=1
$GPRMC,213445.800,A,4305.1612,N,07740.8749,W,0.04,107.99,190319,,,A*70
$GPGGA,213446.000,4305.1612,N,07740.8749,W,1,09,1.05,156.9,M,-34.4,M,,*50
lng=-77.681251, lat=43.086017, altitude=156.90, speed=0.04, satellites=9, angle=107.9900, fixquality=1
$GPRMC,213446.200,A,4305.1612,N,07740.8749,W,0.02,16.69,190319,,,A*41
$GPGGA,213446.400,4305.1613,N,07740.8749,W,1,09,1.05,157.0,M,-34.4,M,,*5D
lng=-77.681251, lat=43.086017, altitude=156.90, speed=0.02, satellites=9, angle=16.6900, fixquality=1
$GPRMC,213446.600,A,4305.1613,N,07740.8749,W,0.01,98.54,190319,,,A*4F
$GPGGA,213446.800,4305.1613,N,07740.8749,W,1,09,1.05,157.0,M,-34.4,M,,*51
lng=-77.681251, lat=43.086017, altitude=157.00, speed=0.01, satellites=9, angle=98.5400, fixquality=1
$GPRMC,213447.000,A,4305.1613,N,07740.8749,W,0.01,206.67,190319,,,A*7D
$GPGGA,213447.200,4305.1613,N,07740.8749,W,1,09,1.06,157.0,M,-34.4,M,,*59
lng=-77.681251, lat=43.086017, altitude=157.00, speed=0.01, satellites=9, angle=206.6700, fixquality=1
$GPRMC,213447.400,A,4305.1614,N,07740.8749,W,0.01,134.91,190319,,,A*75
$GPGGA,213447.600,4305.1614,N,07740.8749,W,1,09,1.06,157.0,M,-34.4,M,,*5A
lng=-77.681251, lat=43.086025, altitude=157.00, speed=0.01, satellites=9, angle=134.9100, fixquality=1
$GPRMC,213447.800,A,4305.1614,N,07740.8750,W,0.01,106.39,190319,,,A*72
$GPGGA,213448.000,4305.1614,N,07740.8750,W,1,09,1.06,156.9,M,-34.4,M,,*53
lng=-77.681251, lat=43.086025, altitude=157.00, speed=0.01, satellites=9, angle=106.3900, fixquality=1
$GPRMC,213448.200,A,4305.1614,N,07740.8750,W,0.02,94.45,190319,,,A*45
$GPGGA,213448.400,4305.1614,N,07740.8750,W,1,09,1.06,156.9,M,-34.4,M,,*57
lng=-77.681251, lat=43.086025, altitude=156.90, speed=0.02, satellites=9, angle=94.4500, fixquality=1
$GPRMC,213448.600,A,4305.1615,N,07740.8750,W,0.01,346.11,190319,,,A*7E
$GPGGA,213448.800,4305.1615,N,07740.8751,W,1,09,1.08,156.9,M,-34.4,M,,*55
lng=-77.681251, lat=43.086025, altitude=156.90, speed=0.01, satellites=9, angle=346.1100, fixquality=1
$GPRMC,213449.000,A,4305.1615,N,07740.8751,W,0.01,284.96,190319,,,A*78
$GPGGA,213449.200,4305.1615,N,07740.8751,W,1,09,1.06,157.0,M,-34.4,M,,*58
lng=-77.681251, lat=43.086025, altitude=156.90, speed=0.01, satellites=9, angle=284.9600, fixquality=1
$GPRMC,213449.400,A,4305.1615,N,07740.8751,W,0.00,351.09,190319,,,A*72
$GPGGA,213449.600,4305.1615,N,07740.8751,W,1,09,1.08,157.0,M,-34.4,M,,*52
lng=-77.681251, lat=43.086025, altitude=157.00, speed=0.00, satellites=9, angle=351.0900, fixquality=1
$GPRMC,213449.800,A,4305.1615,N,07740.8751,W,0.04,10.88,190319,,,A*45
$GPGGA,213450.000,4305.1616,N,07740.8751,W,1,09,1.08,157.0,M,-34.4,M,,*5F
lng=-77.681251, lat=43.086025, altitude=157.00, speed=0.04, satellites=9, angle=10.8800, fixquality=1
$GPRMC,213450.200,A,4305.1616,N,07740.8751,W,0.32,4.22,190319,,,A*74
$GPGGA,213450.400,4305.1616,N,07740.8751,W,1,09,1.08,157.0,M,-34.4,M,,*5B
lng=-77.681251, lat=43.086025, altitude=157.00, speed=0.32, satellites=9, angle=4.2200, fixquality=1
$GPRMC,213450.600,A,4305.1617,N,07740.8751,W,0.76,2.24,190319,,,A*71
$GPGGA,213450.800,4305.1617,N,07740.8751,W,1,09,1.08,157.0,M,-34.4,M,,*56
lng=-77.681251, lat=43.086025, altitude=157.00, speed=0.76, satellites=9, angle=2.2400, fixquality=1
$GPRMC,213451.000,A,4305.1618,N,07740.8751,W,1.19,1.71,190319,,,A*72
$GPGGA,213451.200,4305.1619,N,07740.8751,W,1,09,1.08,157.0,M,-34.4,M,,*53
lng=-77.681251, lat=43.086025, altitude=157.00, speed=1.19, satellites=9, angle=1.7100, fixquality=1
$GPRMC,213451.400,A,4305.1620,N,07740.8751,W,1.41,0.17,190319,,,A*71
$GPGGA,213451.600,4305.1620,N,07740.8751,W,1,09,1.08,157.0,M,-34.4,M,,*5D
lng=-77.681251, lat=43.086036, altitude=157.00, speed=1.41, satellites=9, angle=0.1700, fixquality=1
$GPRMC,213451.800,A,4305.1621,N,07740.8751,W,1.63,359.68,190319,,,A*7B
$GPGGA,213452.000,4305.1622,N,07740.8751,W,1,09,1.08,157.0,M,-34.4,M,,*5A
lng=-77.681251, lat=43.086036, altitude=157.00, speed=1.63, satellites=9, angle=359.6800, fixquality=1
$GPRMC,213452.200,A,4305.1623,N,07740.8751,W,1.75,4.90,190319,,,A*7B
$GPGGA,213452.400,4305.1624,N,07740.8750,W,1,09,1.08,157.0,M,-34.4,M,,*59
lng=-77.681251, lat=43.086036, altitude=157.00, speed=1.75, satellites=9, angle=4.9000, fixquality=1
$GPRMC,213452.600,A,4305.1625,N,07740.8750,W,1.95,8.87,190319,,,A*7C
$GPGGA,213452.800,4305.1626,N,07740.8749,W,1,09,1.08,157.0,M,-34.4,M,,*5F
lng=-77.681251, lat=43.086044, altitude=157.00, speed=1.95, satellites=9, angle=8.8700, fixquality=1
$GPRMC,213453.000,A,4305.1627,N,07740.8749,W,2.10,15.90,190319,,,A*45
$GPGGA,213453.200,4305.1628,N,07740.8748,W,1,09,1.06,156.9,M,-34.4,M,,*5D
lng=-77.681251, lat=43.086044, altitude=157.00, speed=2.10, satellites=9, angle=15.9000, fixquality=1
$GPRMC,213453.400,A,4305.1630,N,07740.8747,W,2.15,20.19,190319,,,A*4B
$GPGGA,213453.600,4305.1631,N,07740.8747,W,1,09,1.06,156.9,M,-34.4,M,,*5E
lng=-77.681243, lat=43.086051, altitude=156.90, speed=2.15, satellites=9, angle=20.1900, fixquality=1
$GPRMC,213453.800,A,4305.1632,N,07740.8746,W,2.31,27.54,190319,,,A*4C
$GPGGA,213454.000,4305.1633,N,07740.8745,W,1,09,1.06,156.8,M,-34.4,M,,*5E
lng=-77.681243, lat=43.086051, altitude=156.90, speed=2.31, satellites=9, angle=27.5400, fixquality=1
$GPRMC,213454.200,A,4305.1634,N,07740.8743,W,2.34,37.52,190319,,,A*40
$GPGGA,213454.400,4305.1635,N,07740.8742,W,1,09,1.06,156.8,M,-34.4,M,,*5B
lng=-77.681243, lat=43.086059, altitude=156.80, speed=2.34, satellites=9, angle=37.5200, fixquality=1
$GPRMC,213454.600,A,4305.1636,N,07740.8741,W,2.37,43.31,190319,,,A*41
$GPGGA,213454.800,4305.1637,N,07740.8739,W,1,09,1.06,156.8,M,-34.4,M,,*59
lng=-77.681236, lat=43.086059, altitude=156.80, speed=2.37, satellites=9, angle=43.3100, fixquality=1
$GPRMC,213455.000,A,4305.1638,N,07740.8738,W,2.46,50.31,190319,,,A*42
$GPGGA,213455.200,4305.1639,N,07740.8736,W,1,09,1.06,156.8,M,-34.4,M,,*53
lng=-77.681236, lat=43.086059, altitude=156.80, speed=2.46, satellites=9, angle=50.3100, fixquality=1
$GPRMC,213455.400,A,4305.1640,N,07740.8734,W,2.52,58.72,190319,,,A*4F
$GPGGA,213455.600,4305.1640,N,07740.8732,W,1,09,1.06,156.8,M,-34.4,M,,*5D
lng=-77.681228, lat=43.086067, altitude=156.80, speed=2.52, satellites=9, angle=58.7200, fixquality=1
$GPRMC,213455.800,A,4305.1641,N,07740.8730,W,2.52,66.46,190319,,,A*4C
$GPGGA,213456.000,4305.1641,N,07740.8728,W,1,09,1.06,156.9,M,-34.4,M,,*53
lng=-77.681221, lat=43.086067, altitude=156.80, speed=2.52, satellites=9, angle=66.4600, fixquality=1
$GPRMC,213456.200,A,4305.1642,N,07740.8726,W,2.48,74.65,190319,,,A*48
$GPGGA,213456.400,4305.1642,N,07740.8724,W,1,09,1.06,156.9,M,-34.4,M,,*58
lng=-77.681205, lat=43.086067, altitude=156.90, speed=2.48, satellites=9, angle=74.6500, fixquality=1
$GPRMC,213456.600,A,4305.1642,N,07740.8721,W,2.34,82.25,190319,,,A*4D
$GPGGA,213456.800,4305.1643,N,07740.8719,W,1,09,1.06,156.9,M,-34.4,M,,*5B
lng=-77.681198, lat=43.086067, altitude=156.90, speed=2.34, satellites=9, angle=82.2500, fixquality=1
$GPRMC,213457.000,A,4305.1643,N,07740.8717,W,1.96,89.84,190319,,,A*45
$GPGGA,213457.200,4305.1643,N,07740.8716,W,1,09,1.06,156.8,M,-34.4,M,,*5E
lng=-77.681190, lat=43.086067, altitude=156.90, speed=1.96, satellites=9, angle=89.8400, fixquality=1
$GPRMC,213457.400,A,4305.1643,N,07740.8714,W,0.77,89.88,190319,,,A*40
$GPGGA,213457.600,4305.1643,N,07740.8714,W,1,09,1.06,156.8,M,-34.4,M,,*58
lng=-77.681190, lat=43.086067, altitude=156.80, speed=0.77, satellites=9, angle=89.8800, fixquality=1
$GPRMC,213457.800,A,4305.1642,N,07740.8713,W,0.19,250.65,190319,,,A*77
$GPGGA,213458.000,4305.1642,N,07740.8713,W,1,09,1.06,156.8,M,-34.4,M,,*57
lng=-77.681182, lat=43.086067, altitude=156.80, speed=0.19, satellites=9, angle=250.6500, fixquality=1
$GPRMC,213458.200,A,4305.1642,N,07740.8713,W,0.49,275.65,190319,,,A*70
$GPGGA,213458.400,4305.1642,N,07740.8714,W,1,09,1.06,156.8,M,-34.4,M,,*54
lng=-77.681182, lat=43.086067, altitude=156.80, speed=0.49, satellites=9, angle=275.6500, fixquality=1
$GPRMC,213458.600,A,4305.1642,N,07740.8714,W,1.19,276.24,190319,,,A*71
$GPGGA,213458.800,4305.1642,N,07740.8715,W,1,09,1.06,156.8,M,-34.4,M,,*59
lng=-77.681190, lat=43.086067, altitude=156.80, speed=1.19, satellites=9, angle=276.2400, fixquality=1
$GPRMC,213459.000,A,4305.1642,N,07740.8716,W,2.03,273.66,190319,,,A*7F
$GPGGA,213459.200,4305.1642,N,07740.8718,W,1,09,1.06,156.8,M,-34.4,M,,*5F
lng=-77.681190, lat=43.086067, altitude=156.80, speed=2.03, satellites=9, angle=273.6600, fixquality=1
$GPRMC,213459.400,A,4305.1642,N,07740.8720,W,2.93,272.43,190319,,,A*71
$GPGGA,213459.600,4305.1642,N,07740.8722,W,1,09,1.06,156.7,M,-34.4,M,,*5D
lng=-77.681198, lat=43.086067, altitude=156.80, speed=2.93, satellites=9, angle=272.4300, fixquality=1
$GPRMC,213459.800,A,4305.1643,N,07740.8725,W,3.73,271.69,190319,,,A*7D
$GPGGA,213500.000,4305.1643,N,07740.8728,W,1,09,1.06,156.7,M,-34.4,M,,*5D
lng=-77.681205, lat=43.086067, altitude=156.70, speed=3.73, satellites=9, angle=271.6900, fixquality=1
$GPRMC,213500.200,A,4305.1643,N,07740.8731,W,4.34,272.42,190319,,,A*71
$GPGGA,213500.400,4305.1643,N,07740.8734,W,1,10,0.97,156.7,M,-34.4,M,,*55
lng=-77.681221, lat=43.086067, altitude=156.70, speed=4.34, satellites=9, angle=272.4200, fixquality=1
$GPRMC,213500.600,A,4305.1643,N,07740.8738,W,4.88,271.00,190319,,,A*7E
$GPGGA,213500.800,4305.1643,N,07740.8741,W,1,10,0.97,156.6,M,-34.4,M,,*5A
lng=-77.681236, lat=43.086067, altitude=156.70, speed=4.88, satellites=10, angle=271.0000, fixquality=1
$GPRMC,213501.000,A,4305.1643,N,07740.8745,W,5.19,270.84,190319,,,A*77
$GPGGA,213501.200,4305.1643,N,07740.8749,W,1,10,0.97,156.6,M,-34.4,M,,*59
lng=-77.681243, lat=43.086067, altitude=156.60, speed=5.19, satellites=10, angle=270.8400, fixquality=1
$GPRMC,213501.400,A,4305.1644,N,07740.8753,W,5.34,270.84,190319,,,A*7C
$GPGGA,213501.600,4305.1644,N,07740.8757,W,1,10,0.97,156.6,M,-34.4,M,,*55
lng=-77.681259, lat=43.086074, altitude=156.60, speed=5.34, satellites=10, angle=270.8400, fixquality=1
$GPRMC,213501.800,A,4305.1644,N,07740.8761,W,5.34,269.55,190319,,,A*75
$GPGGA,213502.000,4305.1644,N,07740.8765,W,1,10,0.97,156.5,M,-34.4,M,,*52
lng=-77.681266, lat=43.086074, altitude=156.60, speed=5.34, satellites=10, angle=269.5500, fixquality=1
$GPRMC,213502.200,A,4305.1644,N,07740.8769,W,5.36,269.17,190319,,,A*70
$GPGGA,213502.400,4305.1644,N,07740.8773,W,1,10,0.97,156.5,M,-34.4,M,,*51
lng=-77.681282, lat=43.086074, altitude=156.50, speed=5.36, satellites=10, angle=269.1700, fixquality=1
$GPRMC,213502.600,A,4305.1644,N,07740.8777,W,5.35,268.04,190319,,,A*7B
$GPGGA,213502.800,4305.1644,N,07740.8781,W,1,10,0.97,156.4,M,-34.4,M,,*51
lng=-77.681297, lat=43.086074, altitude=156.50, speed=5.35, satellites=10, angle=268.0400, fixquality=1
$GPRMC,213503.000,A,4305.1644,N,07740.8785,W,5.38,268.34,190319,,,A*7F
$GPGGA,213503.200,4305.1644,N,07740.8789,W,1,10,0.97,156.3,M,-34.4,M,,*55
lng=-77.681304, lat=43.086074, altitude=156.40, speed=5.38, satellites=10, angle=268.3400, fixquality=1
$GPRMC,213503.400,A,4305.1644,N,07740.8793,W,5.65,269.42,190319,,,A*74
$GPGGA,213503.600,4305.1644,N,07740.8797,W,1,10,0.97,156.2,M,-34.4,M,,*5F
lng=-77.681320, lat=43.086074, altitude=156.30, speed=5.65, satellites=10, angle=269.4200, fixquality=1
$GPRMC,213503.800,A,4305.1644,N,07740.8802,W,5.85,270.42,190319,,,A*79
$GPGGA,213504.000,4305.1644,N,07740.8806,W,1,10,0.97,156.2,M,-34.4,M,,*59
lng=-77.681343, lat=43.086074, altitude=156.20, speed=5.85, satellites=10, angle=270.4200, fixquality=1
$GPRMC,213504.200,A,4305.1645,N,07740.8811,W,6.00,276.84,190319,,,A*75
$GPGGA,213504.400,4305.1645,N,07740.8815,W,1,10,0.97,156.1,M,-34.4,M,,*5D
lng=-77.681350, lat=43.086074, altitude=156.20, speed=6.00, satellites=10, angle=276.8400, fixquality=1
$GPRMC,213504.600,A,4305.1646,N,07740.8820,W,6.01,281.48,190319,,,A*79
$GPGGA,213504.800,4305.1647,N,07740.8824,W,1,10,0.97,156.0,M,-34.4,M,,*50
lng=-77.681365, lat=43.086074, altitude=156.10, speed=6.01, satellites=10, angle=281.4800, fixquality=1
$GPRMC,213505.000,A,4305.1648,N,07740.8828,W,6.23,287.28,190319,,,A*78
$GPGGA,213505.200,4305.1649,N,07740.8833,W,1,10,0.97,156.0,M,-34.4,M,,*53
lng=-77.681381, lat=43.086082, altitude=156.00, speed=6.23, satellites=10, angle=287.2800, fixquality=1
$GPRMC,213505.400,A,4305.1650,N,07740.8837,W,6.61,292.74,190319,,,A*70
$GPGGA,213505.600,4305.1652,N,07740.8841,W,1,10,0.97,156.0,M,-34.4,M,,*58
lng=-77.681396, lat=43.086082, altitude=156.00, speed=6.61, satellites=10, angle=292.7400, fixquality=1
$GPRMC,213505.800,A,4305.1654,N,07740.8845,W,6.50,300.38,190319,,,A*7D
$GPGGA,213506.000,4305.1656,N,07740.8849,W,1,10,0.97,155.9,M,-34.4,M,,*5B
lng=-77.681404, lat=43.086093, altitude=156.00, speed=6.50, satellites=10, angle=300.3800, fixquality=1
$GPRMC,213506.200,A,4305.1658,N,07740.8853,W,6.78,309.79,190319,,,A*79
$GPGGA,213506.400,4305.1661,N,07740.8857,W,1,10,0.97,155.8,M,-34.4,M,,*55
lng=-77.681419, lat=43.086101, altitude=155.90, speed=6.78, satellites=10, angle=309.7900, fixquality=1
$GPRMC,213506.600,A,4305.1664,N,07740.8861,W,6.96,319.05,190319,,,A*79
$GPGGA,213506.800,4305.1667,N,07740.8864,W,1,10,0.97,155.8,M,-34.4,M,,*5F
lng=-77.681434, lat=43.086109, altitude=155.80, speed=6.96, satellites=10, angle=319.0500, fixquality=1
$GPRMC,213507.000,A,4305.1670,N,07740.8867,W,7.33,331.50,190319,,,A*79
$GPGGA,213507.200,4305.1674,N,07740.8869,W,1,10,0.97,155.7,M,-34.4,M,,*54
lng=-77.681442, lat=43.086116, altitude=155.80, speed=7.33, satellites=10, angle=331.5000, fixquality=1
$GPRMC,213507.400,A,4305.1678,N,07740.8871,W,7.83,341.46,190319,,,A*79
$GPGGA,213507.600,4305.1683,N,07740.8873,W,1,10,0.97,155.6,M,-34.4,M,,*52
lng=-77.681449, lat=43.086132, altitude=155.70, speed=7.83, satellites=10, angle=341.4600, fixquality=1
$GPRMC,213507.800,A,4305.1687,N,07740.8874,W,8.52,350.50,190319,,,A*74
$GPGGA,213508.000,4305.1692,N,07740.8875,W,1,10,0.97,155.5,M,-34.4,M,,*5E
lng=-77.681449, lat=43.086139, altitude=155.60, speed=8.52, satellites=10, angle=350.5000, fixquality=1
$GPRMC,213508.200,A,4305.1697,N,07740.8875,W,9.58,356.45,190319,,,A*78
$GPGGA,213508.400,4305.1703,N,07740.8876,W,1,10,0.97,155.4,M,-34.4,M,,*51
lng=-77.681465, lat=43.086166, altitude=155.50, speed=9.58, satellites=10, angle=356.4500, fixquality=1
$GPRMC,213508.600,A,4305.1708,N,07740.8876,W,10.64,358.88,190319,,,A*40
$GPGGA,213508.800,4305.1715,N,07740.8876,W,1,10,0.97,155.3,M,-34.4,M,,*5D
lng=-77.681465, lat=43.086181, altitude=155.40, speed=10.64, satellites=10, angle=358.8800, fixquality=1
$GPRMC,213509.000,A,4305.1721,N,07740.8875,W,11.69,0.39,190319,,,A*47
$GPGGA,213509.200,4305.1727,N,07740.8875,W,1,10,0.97,155.1,M,-34.4,M,,*56
lng=-77.681465, lat=43.086196, altitude=155.30, speed=11.69, satellites=10, angle=0.3900, fixquality=1
$GPRMC,213509.400,A,4305.1734,N,07740.8875,W,12.54,0.19,190319,,,A*48
$GPGGA,213509.600,4305.1741,N,07740.8874,W,1,10,0.97,155.0,M,-34.4,M,,*52
lng=-77.681465, lat=43.086223, altitude=155.10, speed=12.54, satellites=10, angle=0.1900, fixquality=1
$GPRMC,213509.800,A,4305.1749,N,07740.8874,W,13.31,0.57,190319,,,A*47
$GPGGA,213510.000,4305.1756,N,07740.8873,W,1,10,0.97,154.9,M,-34.4,M,,*55
lng=-77.681449, lat=43.086246, altitude=155.00, speed=13.31, satellites=10, angle=0.5700, fixquality=1
$GPRMC,213510.200,A,4305.1764,N,07740.8873,W,13.94,0.33,190319,,,A*40
$GPGGA,213510.400,4305.1772,N,07740.8873,W,1,10,0.97,154.7,M,-34.4,M,,*59
lng=-77.681449, lat=43.086269, altitude=154.90, speed=13.94, satellites=10, angle=0.3300, fixquality=1
$GPRMC,213510.600,A,4305.1780,N,07740.8873,W,14.47,359.66,190319,,,A*48
$GPGGA,213510.800,4305.1788,N,07740.8873,W,1,10,0.97,154.6,M,-34.4,M,,*51
lng=-77.681449, lat=43.086303, altitude=154.70, speed=14.47, satellites=10, angle=359.6600, fixquality=1
$GPRMC,213511.000,A,4305.1797,N,07740.8874,W,14.86,359.55,190319,,,A*43
$GPGGA,213511.200,4305.1805,N,07740.8874,W,1,10,0.97,154.5,M,-34.4,M,,*54
lng=-77.681449, lat=43.086326, altitude=154.60, speed=14.86, satellites=10, angle=359.5500, fixquality=1
$GPRMC,213511.400,A,4305.1814,N,07740.8875,W,15.29,359.60,190319,,,A*40
$GPGGA,213511.600,4305.1823,N,07740.8875,W,1,10,0.97,154.3,M,-34.4,M,,*53
lng=-77.681465, lat=43.086353, altitude=154.50, speed=15.29, satellites=10, angle=359.6000, fixquality=1
$GPRMC,213511.800,A,4305.1831,N,07740.8875,W,15.61,359.27,190319,,,A*44
$GPGGA,213512.000,4305.1840,N,07740.8876,W,1,10,0.97,154.2,M,-34.4,M,,*51
lng=-77.681465, lat=43.086383, altitude=154.30, speed=15.61, satellites=10, angle=359.2700, fixquality=1
$GPRMC,213512.200,A,4305.1849,N,07740.8876,W,15.97,359.22,190319,,,A*4D
$GPGGA,213512.400,4305.1858,N,07740.8877,W,1,10,0.97,154.0,M,-34.4,M,,*5F
lng=-77.681465, lat=43.086418, altitude=154.20, speed=15.97, satellites=10, angle=359.2200, fixquality=1
$GPRMC,213512.600,A,4305.1867,N,07740.8877,W,16.33,359.44,190319,,,A*49
$GPGGA,213512.800,4305.1876,N,07740.8877,W,1,10,0.97,153.9,M,-34.4,M,,*51
lng=-77.681465, lat=43.086441, altitude=154.00, speed=16.33, satellites=10, angle=359.4400, fixquality=1
$GPRMC,213513.000,A,4305.1885,N,07740.8877,W,16.61,359.26,190319,,,A*41
$GPGGA,213513.200,4305.1895,N,07740.8877,W,1,10,0.97,153.7,M,-34.4,M,,*59
lng=-77.681465, lat=43.086475, altitude=153.90, speed=16.61, satellites=10, angle=359.2600, fixquality=1
$GPRMC,213513.400,A,4305.1904,N,07740.8878,W,16.86,359.24,190319,,,A*49
$GPGGA,213513.600,4305.1914,N,07740.8878,W,1,10,0.97,153.5,M,-34.4,M,,*58
lng=-77.681465, lat=43.086505, altitude=153.70, speed=16.86, satellites=10, angle=359.2400, fixquality=1
$GPRMC,213513.800,A,4305.1923,N,07740.8878,W,17.24,359.35,190319,,,A*49
$GPGGA,213514.000,4305.1933,N,07740.8878,W,1,10,0.97,153.3,M,-34.4,M,,*5A
lng=-77.681465, lat=43.086540, altitude=153.50, speed=17.24, satellites=10, angle=359.3500, fixquality=1
$GPRMC,213514.200,A,4305.1943,N,07740.8878,W,17.36,359.52,190319,,,A*40
$GPGGA,213514.400,4305.1953,N,07740.8878,W,1,10,0.97,153.2,M,-34.4,M,,*59
lng=-77.681465, lat=43.086570, altitude=153.30, speed=17.36, satellites=10, angle=359.5200, fixquality=1
$GPRMC,213514.600,A,4305.1962,N,07740.8878,W,17.67,359.25,190319,,,A*43
$GPGGA,213514.800,4305.1972,N,07740.8878,W,1,10,0.97,153.0,M,-34.4,M,,*54
lng=-77.681465, lat=43.086605, altitude=153.20, speed=17.67, satellites=10, angle=359.2500, fixquality=1
$GPRMC,213515.000,A,4305.1982,N,07740.8878,W,17.81,359.32,190319,,,A*44
$GPGGA,213515.200,4305.1992,N,07740.8878,W,1,10,0.97,152.9,M,-34.4,M,,*59
lng=-77.681465, lat=43.086635, altitude=153.00, speed=17.81, satellites=10, angle=359.3200, fixquality=1
$GPRMC,213515.400,A,4305.2002,N,07740.8879,W,18.02,359.69,190319,,,A*49
$GPGGA,213515.600,4305.2012,N,07740.8879,W,1,10,0.97,152.8,M,-34.4,M,,*5F
lng=-77.681465, lat=43.086669, altitude=152.90, speed=18.02, satellites=10, angle=359.6900, fixquality=1
$GPRMC,213515.800,A,4305.2022,N,07740.8879,W,17.81,0.18,190319,,,A*4A
$GPGGA,213516.000,4305.2032,N,07740.8879,W,1,10,0.97,152.7,M,-34.4,M,,*57
lng=-77.681465, lat=43.086704, altitude=152.80, speed=17.81, satellites=10, angle=0.1800, fixquality=1
$GPRMC,213516.200,A,4305.2042,N,07740.8879,W,17.82,0.41,190319,,,A*4A
$GPGGA,213516.400,4305.2052,N,07740.8880,W,1,10,0.97,152.6,M,-34.4,M,,*52
lng=-77.681465, lat=43.086734, altitude=152.70, speed=17.82, satellites=10, angle=0.4100, fixquality=1
$GPRMC,213516.600,A,4305.2062,N,07740.8880,W,17.60,359.46,190319,,,A*4E
$GPGGA,213516.800,4305.2072,N,07740.8880,W,1,10,0.97,152.4,M,-34.4,M,,*5E
lng=-77.681472, lat=43.086769, altitude=152.60, speed=17.60, satellites=10, angle=359.4600, fixquality=1
$GPRMC,213517.000,A,4305.2081,N,07740.8880,W,17.61,358.68,190319,,,A*48
$GPGGA,213517.200,4305.2091,N,07740.8881,W,1,10,0.97,152.3,M,-34.4,M,,*5E
lng=-77.681472, lat=43.086799, altitude=152.40, speed=17.61, satellites=10, angle=358.6800, fixquality=1
$GPRMC,213517.400,A,4305.2101,N,07740.8881,W,17.46,357.72,190319,,,A*45
$GPGGA,213517.600,4305.2111,N,07740.8881,W,1,10,0.97,152.2,M,-34.4,M,,*52
lng=-77.681472, lat=43.086833, altitude=152.30, speed=17.46, satellites=10, angle=357.7200, fixquality=1
$GPRMC,213517.800,A,4305.2121,N,07740.8882,W,17.38,356.21,190319,,,A*46
$GPGGA,213518.000,4305.2130,N,07740.8882,W,1,10,0.97,152.0,M,-34.4,M,,*59
lng=-77.681472, lat=43.086864, altitude=152.20, speed=17.38, satellites=10, angle=356.2100, fixquality=1
$GPRMC,213518.200,A,4305.2140,N,07740.8884,W,17.33,355.42,190319,,,A*4F
$GPGGA,213518.400,4305.2149,N,07740.8885,W,1,10,0.97,151.9,M,-34.4,M,,*5E
lng=-77.681472, lat=43.086898, altitude=152.00, speed=17.33, satellites=10, angle=355.4200, fixquality=1
$GPRMC,213518.600,A,4305.2159,N,07740.8886,W,17.16,354.67,190319,,,A*40
$GPGGA,213518.800,4305.2168,N,07740.8887,W,1,10,0.97,151.8,M,-34.4,M,,*52
lng=-77.681480, lat=43.086929, altitude=151.90, speed=17.16, satellites=10, angle=354.6700, fixquality=1
$GPRMC,213519.000,A,4305.2177,N,07740.8889,W,17.06,353.76,190319,,,A*42
$GPGGA,213519.200,4305.2187,N,07740.8891,W,1,10,0.97,151.7,M,-34.4,M,,*50
lng=-77.681480, lat=43.086963, altitude=151.80, speed=17.06, satellites=10, angle=353.7600, fixquality=1
$GPRMC,213519.400,A,4305.2196,N,07740.8893,W,17.02,352.76,190319,,,A*47
$GPGGA,213519.600,4305.2205,N,07740.8895,W,1,10,0.97,151.6,M,-34.4,M,,*58
lng=-77.681488, lat=43.086994, altitude=151.70, speed=17.02, satellites=10, angle=352.7600, fixquality=1
$GPRMC,213519.800,A,4305.2215,N,07740.8897,W,16.92,351.70,190319,,,A*4A
$GPGGA,213520.000,4305.2224,N,07740.8899,W,1,10,0.97,151.4,M,-34.4,M,,*59
lng=-77.681495, lat=43.087028, altitude=151.60, speed=16.92, satellites=10, angle=351.7000, fixquality=1
$GPRMC,213520.200,A,4305.2233,N,07740.8902,W,16.61,350.91,190319,,,A*41
$GPGGA,213520.400,4305.2243,N,07740.8904,W,1,10,0.97,151.3,M,-34.4,M,,*5E
lng=-77.681503, lat=43.087051, altitude=151.40, speed=16.61, satellites=10, angle=350.9100, fixquality=1
$GPRMC,213520.600,A,4305.2252,N,07740.8907,W,16.64,350.75,190319,,,A*48
$GPGGA,213520.800,4305.2262,N,07740.8909,W,1,10,0.97,151.2,M,-34.4,M,,*5D
lng=-77.681510, lat=43.087085, altitude=151.30, speed=16.64, satellites=10, angle=350.7500, fixquality=1
$GPRMC,213521.000,A,4305.2271,N,07740.8912,W,16.44,350.07,190319,,,A*4D
$GPGGA,213521.200,4305.2280,N,07740.8914,W,1,10,0.97,151.0,M,-34.4,M,,*54
lng=-77.681518, lat=43.087116, altitude=151.20, speed=16.44, satellites=10, angle=350.0700, fixquality=1
$GPRMC,213521.400,A,4305.2289,N,07740.8916,W,16.11,349.72,190319,,,A*40
$GPGGA,213521.600,4305.2298,N,07740.8918,W,1,10,0.97,151.0,M,-34.4,M,,*55
lng=-77.681526, lat=43.087150, altitude=151.00, speed=16.11, satellites=10, angle=349.7200, fixquality=1
$GPRMC,213521.800,A,4305.2306,N,07740.8920,W,15.05,349.71,190319,,,A*4A
$GPGGA,213522.000,4305.2314,N,07740.8922,W,1,10,0.97,150.9,M,-34.4,M,,*54
lng=-77.681533, lat=43.087173, altitude=151.00, speed=15.05, satellites=10, angle=349.7100, fixquality=1
$GPRMC,213522.200,A,4305.2322,N,07740.8924,W,13.46,349.74,190319,,,A*45
$GPGGA,213522.400,4305.2329,N,07740.8925,W,1,10,0.97,150.8,M,-34.4,M,,*58
lng=-77.681541, lat=43.087207, altitude=150.90, speed=13.46, satellites=10, angle=349.7400, fixquality=1
$GPRMC,213522.600,A,4305.2335,N,07740.8927,W,11.52,349.71,190319,,,A*46
$GPGGA,213522.800,4305.2341,N,07740.8928,W,1,10,0.97,150.8,M,-34.4,M,,*57
lng=-77.681541, lat=43.087223, altitude=150.80, speed=11.52, satellites=10, angle=349.7100, fixquality=1
$GPRMC,213523.000,A,4305.2346,N,07740.8929,W,9.35,349.50,190319,,,A*70
$GPGGA,213523.200,4305.2351,N,07740.8930,W,1,10,0.97,150.8,M,-34.4,M,,*54
lng=-77.681549, lat=43.087238, altitude=150.80, speed=9.35, satellites=10, angle=349.5000, fixquality=1
$GPRMC,213523.400,A,4305.2355,N,07740.8931,W,7.28,349.36,190319,,,A*7D
$GPGGA,213523.600,4305.2359,N,07740.8932,W,1,10,0.97,150.8,M,-34.4,M,,*5A
lng=-77.681549, lat=43.087257, altitude=150.80, speed=7.28, satellites=10, angle=349.3600, fixquality=1
$GPRMC,213523.800,A,4305.2362,N,07740.8934,W,5.40,348.95,190319,,,A*74
$GPGGA,213524.000,4305.2364,N,07740.8935,W,1,10,0.97,150.8,M,-34.4,M,,*52
lng=-77.681556, lat=43.087272, altitude=150.80, speed=5.40, satellites=10, angle=348.9500, fixquality=1
$GPRMC,213524.200,A,4305.2366,N,07740.8936,W,4.45,347.93,190319,,,A*72
$GPGGA,213524.400,4305.2368,N,07740.8936,W,1,10,0.97,150.8,M,-34.4,M,,*59
lng=-77.681556, lat=43.087280, altitude=150.80, speed=4.45, satellites=10, angle=347.9300, fixquality=1
$GPRMC,213524.600,A,4305.2370,N,07740.8937,W,3.79,348.42,190319,,,A*7B
$GPGGA,213524.800,4305.2371,N,07740.8937,W,1,10,0.97,150.8,M,-34.4,M,,*5C
lng=-77.681556, lat=43.087280, altitude=150.80, speed=3.79, satellites=10, angle=348.4200, fixquality=1
$GPRMC,213525.000,A,4305.2373,N,07740.8938,W,2.59,346.05,190319,,,A*7E
$GPGGA,213525.200,4305.2374,N,07740.8938,W,1,10,0.97,150.8,M,-34.4,M,,*5D
lng=-77.681556, lat=43.087287, altitude=150.80, speed=2.59, satellites=10, angle=346.0500, fixquality=1
$GPRMC,213525.400,A,4305.2375,N,07740.8938,W,1.46,346.05,190319,,,A*71
$GPGGA,213525.600,4305.2376,N,07740.8938,W,1,10,0.97,150.8,M,-34.4,M,,*5B
lng=-77.681556, lat=43.087287, altitude=150.80, speed=1.46, satellites=10, angle=346.0500, fixquality=1
$GPRMC,213525.800,A,4305.2376,N,07740.8938,W,0.55,346.05,190319,,,A*7D
$GPGGA,213526.000,4305.2376,N,07740.8937,W,1,10,0.97,150.8,M,-34.4,M,,*51
lng=-77.681556, lat=43.087295, altitude=150.80, speed=0.55, satellites=10, angle=346.0500, fixquality=1
$GPRMC,213526.200,A,4305.2376,N,07740.8937,W,0.00,346.05,190319,,,A*7B
$GPGGA,213526.400,4305.2376,N,07740.8937,W,1,10,0.92,150.8,M,-34.4,M,,*50
lng=-77.681556, lat=43.087295, altitude=150.80, speed=0.00, satellites=10, angle=346.0500, fixquality=1
$GPRMC,213526.600,A,4305.2376,N,07740.8936,W,0.01,346.05,190319,,,A*7F
$GPGGA,213526.800,4305.2376,N,07740.8936,W,1,10,0.92,150.8,M,-34.4,M,,*5D
lng=-77.681556, lat=43.087295, altitude=150.80, speed=0.01, satellites=10, angle=346.0500, fixquality=1
$GPRMC,213527.000,A,4305.2375,N,07740.8935,W,0.01,346.05,190319,,,A*78
$GPGGA,213527.200,4305.2375,N,07740.8935,W,1,10,0.92,150.8,M,-34.4,M,,*56
lng=-77.681556, lat=43.087287, altitude=150.80, speed=0.01, satellites=10, angle=346.0500, fixquality=1
$GPRMC,213527.400,A,4305.2375,N,07740.8935,W,0.02,346.05,190319,,,A*7F
$GPGGA,213527.600,4305.2376,N,07740.8936,W,1,10,0.92,150.8,M,-34.4,M,,*52
lng=-77.681556, lat=43.087287, altitude=150.80, speed=0.02, satellites=10, angle=346.0500, fixquality=1
$GPRMC,213527.800,A,4305.2376,N,07740.8936,W,0.02,346.05,190319,,,A*73
$GPGGA,213528.000,4305.2376,N,07740.8936,W,1,10,0.92,150.7,M,-34.4,M,,*54
lng=-77.681556, lat=43.087295, altitude=150.80, speed=0.02, satellites=10, angle=346.0500, fixquality=1
$GPRMC,213528.200,A,4305.2376,N,07740.8936,W,0.07,346.05,190319,,,A*73
$GPGGA,213528.400,4305.2376,N,07740.8936,W,1,10,0.92,150.7,M,-34.4,M,,*50
lng=-77.681556, lat=43.087295, altitude=150.70, speed=0.07, satellites=10, angle=346.0500, fixquality=1
$GPRMC,213528.600,A,4305.2376,N,07740.8936,W,1.09,346.05,190319,,,A*78
$GPGGA,213528.800,4305.2377,N,07740.8937,W,1,10,0.97,150.6,M,-34.4,M,,*58
lng=-77.681556, lat=43.087295, altitude=150.70, speed=1.09, satellites=10, angle=346.0500, fixquality=1
$GPRMC,213529.000,A,4305.2378,N,07740.8937,W,2.72,346.05,190319,,,A*7F
$GPGGA,213529.200,4305.2380,N,07740.8938,W,1,10,0.92,150.6,M,-34.4,M,,*51
lng=-77.681556, lat=43.087295, altitude=150.60, speed=2.72, satellites=10, angle=346.0500, fixquality=1
$GPRMC,213529.400,A,4305.2382,N,07740.8939,W,4.52,336.64,190319,,,A*74
$GPGGA,213529.600,4305.2384,N,07740.8940,W,1,10,0.97,150.6,M,-34.4,M,,*5B
lng=-77.681564, lat=43.087303, altitude=150.60, speed=4.52, satellites=10, angle=336.6400, fixquality=1
$GPRMC,213529.800,A,4305.2387,N,07740.8942,W,6.22,330.01,190319,,,A*71
$GPGGA,213530.000,4305.2390,N,07740.8944,W,1,10,0.97,150.7,M,-34.4,M,,*55
lng=-77.681564, lat=43.087314, altitude=150.60, speed=6.22, satellites=10, angle=330.0100, fixquality=1
$GPRMC,213530.200,A,4305.2393,N,07740.8947,W,7.78,324.04,190319,,,A*7D
$GPGGA,213530.400,4305.2396,N,07740.8951,W,1,10,0.97,150.7,M,-34.4,M,,*53
lng=-77.681571, lat=43.087322, altitude=150.70, speed=7.78, satellites=10, angle=324.0400, fixquality=1
$GPRMC,213530.600,A,4305.2399,N,07740.8955,W,8.95,314.63,190319,,,A*7E
$GPGGA,213530.800,4305.2402,N,07740.8960,W,1,10,0.97,150.7,M,-34.4,M,,*57
lng=-77.681594, lat=43.087329, altitude=150.70, speed=8.95, satellites=10, angle=314.6300, fixquality=1
$GPRMC,213531.000,A,4305.2406,N,07740.8965,W,9.91,304.74,190319,,,A*79
$GPGGA,213531.200,4305.2408,N,07740.8972,W,1,10,0.97,150.7,M,-34.4,M,,*55
lng=-77.681610, lat=43.087345, altitude=150.70, speed=9.91, satellites=10, angle=304.7400, fixquality=1
$GPRMC,213531.400,A,4305.2411,N,07740.8979,W,11.04,293.23,190319,,,A*4E
$GPGGA,213531.600,4305.2413,N,07740.8988,W,1,10,0.97,150.7,M,-34.4,M,,*5E
lng=-77.681632, lat=43.087352, altitude=150.70, speed=11.04, satellites=10, angle=293.2300, fixquality=1
$GPRMC,213531.800,A,4305.2415,N,07740.8997,W,11.91,280.97,190319,,,A*47
$GPGGA,213532.000,4305.2416,N,07740.9007,W,1,10,0.97,150.6,M,-34.4,M,,*50
lng=-77.681663, lat=43.087360, altitude=150.70, speed=11.91, satellites=10, angle=280.9700, fixquality=1
$GPRMC,213532.200,A,4305.2417,N,07740.9017,W,12.82,269.62,190319,,,A*40
$GPGGA,213532.400,4305.2416,N,07740.9027,W,1,10,0.97,150.6,M,-34.4,M,,*56
lng=-77.681694, lat=43.087360, altitude=150.60, speed=12.82, satellites=10, angle=269.6200, fixquality=1
$GPRMC,213532.600,A,4305.2415,N,07740.9037,W,13.93,260.30,190319,,,A*4B
$GPGGA,213532.800,4305.2414,N,07740.9048,W,1,10,0.97,150.5,M,-34.4,M,,*52
lng=-77.681732, lat=43.087360, altitude=150.60, speed=13.93, satellites=10, angle=260.3000, fixquality=1
$GPRMC,213533.000,A,4305.2412,N,07740.9059,W,14.86,254.59,190319,,,A*48
$GPGGA,213533.200,4305.2409,N,07740.9070,W,1,10,0.97,150.5,M,-34.4,M,,*5E
lng=-77.681762, lat=43.087352, altitude=150.50, speed=14.86, satellites=10, angle=254.5900, fixquality=1
$GPRMC,213533.400,A,4305.2406,N,07740.9081,W,15.92,250.24,190319,,,A*46
$GPGGA,213533.600,4305.2403,N,07740.9092,W,1,10,0.97,150.5,M,-34.4,M,,*5C
lng=-77.681800, lat=43.087345, altitude=150.50, speed=15.92, satellites=10, angle=250.2400, fixquality=1
$GPRMC,213533.800,A,4305.2399,N,07740.9104,W,17.19,248.66,190319,,,A*49
$GPGGA,213534.000,4305.2395,N,07740.9116,W,1,10,0.97,150.5,M,-34.4,M,,*58
lng=-77.681838, lat=43.087329, altitude=150.50, speed=17.19, satellites=10, angle=248.6600, fixquality=1
$GPRMC,213534.200,A,4305.2391,N,07740.9129,W,18.54,247.09,190319,,,A*43
$GPGGA,213534.400,4305.2387,N,07740.9142,W,1,10,0.97,150.5,M,-34.4,M,,*5E
lng=-77.681884, lat=43.087322, altitude=150.50, speed=18.54, satellites=10, angle=247.0900, fixquality=1
$GPRMC,213534.600,A,4305.2382,N,07740.9156,W,19.70,246.52,190319,,,A*45
$GPGGA,213534.800,4305.2378,N,07740.9170,W,1,10,0.97,150.5,M,-34.4,M,,*53
lng=-77.681922, lat=43.087303, altitude=150.50, speed=19.70, satellites=10, angle=246.5200, fixquality=1
$GPRMC,213535.000,A,4305.2373,N,07740.9184,W,20.74,246.67,190319,,,A*4B
$GPGGA,213535.200,4305.2369,N,07740.9199,W,1,10,0.97,150.5,M,-34.4,M,,*5F
lng=-77.681976, lat=43.087287, altitude=150.50, speed=20.74, satellites=10, angle=246.6700, fixquality=1
$GPRMC,213535.400,A,4305.2364,N,07740.9214,W,21.81,246.31,190319,,,A*4B
$GPGGA,213535.600,4305.2359,N,07740.9230,W,1,10,0.97,150.4,M,-34.4,M,,*59
lng=-77.682022, lat=43.087272, altitude=150.50, speed=21.81, satellites=10, angle=246.3100, fixquality=1
$GPRMC,213535.800,A,4305.2353,N,07740.9245,W,22.71,245.12,190319,,,A*49
$GPGGA,213536.000,4305.2348,N,07740.9261,W,1,10,0.97,150.4,M,-34.4,M,,*58
lng=-77.682075, lat=43.087257, altitude=150.40, speed=22.71, satellites=10, angle=245.1200, fixquality=1
$GPRMC,213536.200,A,4305.2342,N,07740.9277,W,23.52,244.24,190319,,,A*45
$GPGGA,213536.400,4305.2336,N,07740.9293,W,1,10,0.97,150.4,M,-34.4,M,,*58
lng=-77.682128, lat=43.087238, altitude=150.40, speed=23.52, satellites=10, angle=244.2400, fixquality=1
$GPRMC,213536.600,A,4305.2330,N,07740.9310,W,24.32,243.34,190319,,,A*43
$GPGGA,213536.800,4305.2324,N,07740.9327,W,1,10,0.97,150.4,M,-34.4,M,,*59
lng=-77.682182, lat=43.087215, altitude=150.40, speed=24.32, satellites=10, angle=243.3400, fixquality=1
$GPRMC,213537.000,A,4305.2318,N,07740.9344,W,25.09,242.17,190319,,,A*46
$GPGGA,213537.200,4305.2311,N,07740.9361,W,1,10,0.97,150.4,M,-34.4,M,,*56
lng=-77.682243, lat=43.087200, altitude=150.40, speed=25.09, satellites=10, angle=242.1700, fixquality=1
$GPRMC,213537.400,A,4305.2304,N,07740.9378,W,25.76,240.67,190319,,,A*4D
$GPGGA,213537.600,4305.2297,N,07740.9395,W,1,10,0.97,150.4,M,-34.4,M,,*56
lng=-77.682296, lat=43.087173, altitude=150.40, speed=25.76, satellites=10, angle=240.6700, fixquality=1
$GPRMC,213537.800,A,4305.2290,N,07740.9412,W,26.45,239.51,190319,,,A*4E
$GPGGA,213538.000,4305.2282,N,07740.9430,W,1,10,0.97,150.4,M,-34.4,M,,*53
lng=-77.682357, lat=43.087150, altitude=150.40, speed=26.45, satellites=10, angle=239.5100, fixquality=1
$GPRMC,213538.200,A,4305.2274,N,07740.9447,W,27.18,238.43,190319,,,A*4A
$GPGGA,213538.400,4305.2266,N,07740.9465,W,1,10,0.97,150.4,M,-34.4,M,,*5D
lng=-77.682411, lat=43.087123, altitude=150.40, speed=27.18, satellites=10, angle=238.4300, fixquality=1
$GPRMC,213538.600,A,4305.2258,N,07740.9483,W,27.81,237.95,190319,,,A*4C
$GPGGA,213538.800,4305.2250,N,07740.9501,W,1,10,0.97,150.4,M,-34.4,M,,*57
lng=-77.682472, lat=43.087093, altitude=150.40, speed=27.81, satellites=10, angle=237.9500, fixquality=1
$GPRMC,213539.000,A,4305.2241,N,07740.9519,W,28.40,237.56,190319,,,A*4C
$GPGGA,213539.200,4305.2233,N,07740.9537,W,1,10,0.97,150.3,M,-34.4,M,,*5B
lng=-77.682525, lat=43.087070, altitude=150.40, speed=28.40, satellites=10, angle=237.5600, fixquality=1
$GPRMC,213539.400,A,4305.2224,N,07740.9556,W,28.95,237.12,190319,,,A*48
$GPGGA,213539.600,4305.2215,N,07740.9574,W,1,10,0.97,150.3,M,-34.4,M,,*5C
lng=-77.682594, lat=43.087036, altitude=150.30, speed=28.95, satellites=10, angle=237.1200, fixquality=1
$GPRMC,213539.800,A,4305.2206,N,07740.9593,W,29.50,236.71,190319,,,A*41
$GPGGA,213540.000,4305.2197,N,07740.9612,W,1,10,0.97,150.3,M,-34.4,M,,*5E
lng=-77.682655, lat=43.087013, altitude=150.30, speed=29.50, satellites=10, angle=236.7100, fixquality=1
$GPRMC,213540.200,A,4305.2188,N,07740.9631,W,29.97,235.95,190319,,,A*49
$GPGGA,213540.400,4305.2178,N,07740.9650,W,1,10,0.97,150.3,M,-34.4,M,,*5D
lng=-77.682716, lat=43.086978, altitude=150.30, speed=29.97, satellites=10, angle=235.9500, fixquality=1
$GPRMC,213540.600,A,4305.2169,N,07740.9669,W,30.28,235.03,190319,,,A*4C
$GPGGA,213540.800,4305.2159,N,07740.9688,W,1,10,0.97,150.2,M,-34.4,M,,*56
lng=-77.682777, lat=43.086948, altitude=150.30, speed=30.28, satellites=10, angle=235.0300, fixquality=1
$GPRMC,213541.000,A,4305.2149,N,07740.9708,W,30.63,234.04,190319,,,A*46
$GPGGA,213541.200,4305.2139,N,07740.9727,W,1,10,0.97,150.2,M,-34.4,M,,*5F
lng=-77.682846, lat=43.086914, altitude=150.20, speed=30.63, satellites=10, angle=234.0400, fixquality=1
$GPRMC,213541.400,A,4305.2129,N,07740.9746,W,31.01,233.16,190319,,,A*4F
$GPGGA,213541.600,4305.2119,N,07740.9765,W,1,10,0.97,150.2,M,-34.4,M,,*5F
lng=-77.682907, lat=43.086879, altitude=150.20, speed=31.01, satellites=10, angle=233.1600, fixquality=1
$GPRMC,213541.800,A,4305.2108,N,07740.9784,W,31.33,232.68,190319,,,A*47
$GPGGA,213542.000,4305.2098,N,07740.9803,W,1,10,0.97,150.2,M,-34.4,M,,*5D
lng=-77.682975, lat=43.086849, altitude=150.20, speed=31.33, satellites=10, angle=232.6800, fixquality=1
$GPRMC,213542.200,A,4305.2087,N,07740.9822,W,31.87,232.09,190319,,,A*43
$GPGGA,213542.400,4305.2076,N,07740.9841,W,1,10,0.97,150.3,M,-34.4,M,,*5E
lng=-77.683036, lat=43.086807, altitude=150.20, speed=31.87, satellites=10, angle=232.0900, fixquality=1
$GPRMC,213542.600,A,4305.2065,N,07740.9860,W,32.17,231.08,190319,,,A*45
$GPGGA,213542.800,4305.2053,N,07740.9879,W,1,10,0.97,150.3,M,-34.4,M,,*5E
lng=-77.683097, lat=43.086776, altitude=150.30, speed=32.17, satellites=10, angle=231.0800, fixquality=1
$GPRMC,213543.000,A,4305.2042,N,07740.9899,W,32.53,230.49,190319,,,A*45
$GPGGA,213543.200,4305.2030,N,07740.9918,W,1,10,0.97,150.3,M,-34.4,M,,*56
lng=-77.683158, lat=43.086734, altitude=150.30, speed=32.53, satellites=10, angle=230.4900, fixquality=1
$GPRMC,213543.400,A,4305.2019,N,07740.9938,W,32.91,229.55,190319,,,A*4E
$GPGGA,213543.600,4305.2007,N,07740.9957,W,1,10,0.97,150.3,M,-34.4,M,,*5D
lng=-77.683227, lat=43.086692, altitude=150.30, speed=32.91, satellites=10, angle=229.5500, fixquality=1
$GPRMC,213543.800,A,4305.1995,N,07740.9976,W,33.14,229.01,190319,,,A*4B
$GPGGA,213544.000,4305.1983,N,07740.9995,W,1,10,0.97,150.4,M,-34.4,M,,*53
lng=-77.683296, lat=43.086662, altitude=150.30, speed=33.14, satellites=10, angle=229.0100, fixquality=1
$GPRMC,213544.200,A,4305.1970,N,07741.0014,W,33.42,227.73,190319,,,A*40
$GPGGA,213544.400,4305.1957,N,07741.0033,W,1,10,0.97,150.4,M,-34.4,M,,*53
lng=-77.683357, lat=43.086612, altitude=150.40, speed=33.42, satellites=10, angle=227.7300, fixquality=1
$GPRMC,213544.600,A,4305.1945,N,07741.0052,W,33.73,226.90,190319,,,A*4E
$GPGGA,213544.800,4305.1932,N,07741.0070,W,1,10,0.97,150.4,M,-34.4,M,,*5B
lng=-77.683425, lat=43.086570, altitude=150.40, speed=33.73, satellites=10, angle=226.9000, fixquality=1
$GPRMC,213545.000,A,4305.1918,N,07741.0089,W,33.97,225.81,190319,,,A*4E
$GPGGA,213545.200,4305.1905,N,07741.0108,W,1,10,0.97,150.4,M,-34.4,M,,*5A
lng=-77.683479, lat=43.086532, altitude=150.40, speed=33.97, satellites=10, angle=225.8100, fixquality=1
$GPRMC,213545.400,A,4305.1892,N,07741.0126,W,34.11,224.98,190319,,,A*4D
$GPGGA,213545.600,4305.1878,N,07741.0144,W,1,10,0.97,150.5,M,-34.4,M,,*5C
lng=-77.683547, lat=43.086483, altitude=150.40, speed=34.11, satellites=10, angle=224.9800, fixquality=1
$GPRMC,213545.800,A,4305.1865,N,07741.0163,W,33.78,223.96,190319,,,A*49
$GPGGA,213546.000,4305.1851,N,07741.0181,W,1,10,0.97,150.5,M,-34.4,M,,*5B
lng=-77.683601, lat=43.086441, altitude=150.50, speed=33.78, satellites=10, angle=223.9600, fixquality=1
$GPRMC,213546.200,A,4305.1838,N,07741.0198,W,33.43,222.95,190319,,,A*46
$GPGGA,213546.400,4305.1824,N,07741.0216,W,1,10,0.97,150.6,M,-34.4,M,,*53
lng=-77.683670, lat=43.086391, altitude=150.50, speed=33.43, satellites=10, angle=222.9500, fixquality=1
$GPRMC,213546.600,A,4305.1810,N,07741.0233,W,33.12,222.04,190319,,,A*46
$GPGGA,213546.800,4305.1796,N,07741.0250,W,1,10,0.97,150.6,M,-34.4,M,,*5B
lng=-77.683723, lat=43.086353, altitude=150.60, speed=33.12, satellites=10, angle=222.0400, fixquality=1
$GPRMC,213547.000,A,4305.1783,N,07741.0266,W,32.77,221.08,190319,,,A*49
$GPGGA,213547.200,4305.1769,N,07741.0283,W,1,10,0.97,150.7,M,-34.4,M,,*5F
lng=-77.683769, lat=43.086303, altitude=150.60, speed=32.77, satellites=10, angle=221.0800, fixquality=1
$GPRMC,213547.400,A,4305.1755,N,07741.0299,W,32.44,220.23,190319,,,A*4E
$GPGGA,213547.600,4305.1742,N,07741.0315,W,1,10,0.97,150.7,M,-34.4,M,,*5C
lng=-77.683830, lat=43.086254, altitude=150.70, speed=32.44, satellites=10, angle=220.2300, fixquality=1
$GPRMC,213547.800,A,4305.1728,N,07741.0330,W,32.14,219.33,190319,,,A*44
$GPGGA,213548.000,4305.1714,N,07741.0346,W,1,10,0.97,150.8,M,-34.4,M,,*5F
lng=-77.683883, lat=43.086215, altitude=150.70, speed=32.14, satellites=10, angle=219.3300, fixquality=1
$GPRMC,213548.200,A,4305.1700,N,07741.0361,W,31.73,218.40,190319,,,A*48
$GPGGA,213548.400,4305.1686,N,07741.0376,W,1,10,0.97,150.8,M,-34.4,M,,*52
lng=-77.683937, lat=43.086166, altitude=150.80, speed=31.73, satellites=10, angle=218.4000, fixquality=1
$GPRMC,213548.600,A,4305.1672,N,07741.0390,W,31.36,217.54,190319,,,A*4D
$GPGGA,213548.800,4305.1659,N,07741.0405,W,1,10,0.97,150.8,M,-34.4,M,,*5F
lng=-77.683982, lat=43.086116, altitude=150.80, speed=31.36, satellites=10, angle=217.5400, fixquality=1
$GPRMC,213549.000,A,4305.1645,N,07741.0419,W,31.09,216.86,190319,,,A*4A
$GPGGA,213549.200,4305.1631,N,07741.0433,W,1,10,0.97,150.8,M,-34.4,M,,*5F
lng=-77.684036, lat=43.086074, altitude=150.80, speed=31.09, satellites=10, angle=216.8600, fixquality=1
$GPRMC,213549.400,A,4305.1617,N,07741.0447,W,30.67,216.14,190319,,,A*40
$GPGGA,213549.600,4305.1603,N,07741.0461,W,1,10,0.97,150.8,M,-34.4,M,,*5D
lng=-77.684082, lat=43.086025, altitude=150.80, speed=30.67, satellites=10, angle=216.1400, fixquality=1
$GPRMC,213549.800,A,4305.1590,N,07741.0474,W,30.37,215.89,190319,,,A*42
$GPGGA,213550.000,4305.1576,N,07741.0488,W,1,10,0.97,150.8,M,-34.4,M,,*55
lng=-77.684120, lat=43.085987, altitude=150.80, speed=30.37, satellites=10, angle=215.8900, fixquality=1
$GPRMC,213550.200,A,4305.1562,N,07741.0501,W,30.04,215.67,190319,,,A*4E
$GPGGA,213550.400,4305.1548,N,07741.0514,W,1,10,0.97,150.9,M,-34.4,M,,*59
lng=-77.684173, lat=43.085937, altitude=150.80, speed=30.04, satellites=10, angle=215.6700, fixquality=1
$GPRMC,213550.600,A,4305.1535,N,07741.0527,W,29.84,215.33,190319,,,A*4D
$GPGGA,213550.800,4305.1521,N,07741.0540,W,1,10,0.97,150.9,M,-34.4,M,,*5B
lng=-77.684211, lat=43.085887, altitude=150.90, speed=29.84, satellites=10, angle=215.3300, fixquality=1
$GPRMC,213551.000,A,4305.1508,N,07741.0552,W,29.52,215.65,190319,,,A*4E
$GPGGA,213551.200,4305.1495,N,07741.0565,W,1,10,0.97,151.0,M,-34.4,M,,*51
lng=-77.684249, lat=43.085849, altitude=150.90, speed=29.52, satellites=10, angle=215.6500, fixquality=1
$GPRMC,213551.400,A,4305.1482,N,07741.0578,W,29.12,215.53,190319,,,A*40
$GPGGA,213551.600,4305.1468,N,07741.0591,W,1,10,0.97,151.0,M,-34.4,M,,*5C
lng=-77.684295, lat=43.085807, altitude=151.00, speed=29.12, satellites=10, angle=215.5300, fixquality=1
$GPRMC,213551.800,A,4305.1455,N,07741.0603,W,28.89,215.46,190319,,,A*4E
$GPGGA,213552.000,4305.1442,N,07741.0616,W,1,10,0.97,151.0,M,-34.4,M,,*5D
lng=-77.684333, lat=43.085758, altitude=151.00, speed=28.89, satellites=10, angle=215.4600, fixquality=1
$GPRMC,213552.200,A,4305.1430,N,07741.0629,W,28.04,215.76,190319,,,A*4A
$GPGGA,213552.400,4305.1417,N,07741.0641,W,1,10,0.97,151.0,M,-34.4,M,,*5B
lng=-77.684379, lat=43.085716, altitude=151.00, speed=28.04, satellites=10, angle=215.7600, fixquality=1
$GPRMC,213552.600,A,4305.1405,N,07741.0653,W,26.92,215.78,190319,,,A*4A
$GPGGA,213552.800,4305.1393,N,07741.0665,W,1,10,0.97,151.1,M,-34.4,M,,*5B
lng=-77.684425, lat=43.085678, altitude=151.00, speed=26.92, satellites=10, angle=215.7800, fixquality=1
$GPRMC,213553.000,A,4305.1381,N,07741.0676,W,25.60,215.50,190319,,,A*45
$GPGGA,213553.200,4305.1369,N,07741.0687,W,1,10,0.97,151.1,M,-34.4,M,,*59
lng=-77.684455, lat=43.085636, altitude=151.10, speed=25.60, satellites=10, angle=215.5000, fixquality=1
$GPRMC,213553.400,A,4305.1358,N,07741.0697,W,23.97,215.61,190319,,,A*46
$GPGGA,213553.600,4305.1348,N,07741.0708,W,1,10,0.97,151.2,M,-34.4,M,,*5B
lng=-77.684494, lat=43.085594, altitude=151.10, speed=23.97, satellites=10, angle=215.6100, fixquality=1
$GPRMC,213553.800,A,4305.1337,N,07741.0717,W,22.09,215.63,190319,,,A*4E
$GPGGA,213554.000,4305.1328,N,07741.0727,W,1,10,0.97,151.3,M,-34.4,M,,*50
lng=-77.684532, lat=43.085563, altitude=151.20, speed=22.09, satellites=10, angle=215.6300, fixquality=1
$GPRMC,213554.200,A,4305.1318,N,07741.0736,W,20.14,215.68,190319,,,A*48
$GPGGA,213554.400,4305.1310,N,07741.0744,W,1,10,0.97,151.3,M,-34.4,M,,*5A
lng=-77.684562, lat=43.085529, altitude=151.30, speed=20.14, satellites=10, angle=215.6800, fixquality=1
$GPRMC,213554.600,A,4305.1301,N,07741.0752,W,17.85,216.77,190319,,,A*47
$GPGGA,213554.800,4305.1294,N,07741.0760,W,1,10,0.97,151.4,M,-34.4,M,,*5A
lng=-77.684585, lat=43.085498, altitude=151.30, speed=17.85, satellites=10, angle=216.7700, fixquality=1
$GPRMC,213555.000,A,4305.1287,N,07741.0768,W,15.60,218.71,190319,,,A*47
$GPGGA,213555.200,4305.1281,N,07741.0776,W,1,10,0.97,151.4,M,-34.4,M,,*52
lng=-77.684608, lat=43.085483, altitude=151.40, speed=15.60, satellites=10, angle=218.7100, fixquality=1
$GPRMC,213555.400,A,4305.1276,N,07741.0783,W,13.81,222.01,190319,,,A*4F
$GPGGA,213555.600,4305.1270,N,07741.0791,W,1,10,0.97,151.4,M,-34.4,M,,*51
lng=-77.684638, lat=43.085456, altitude=151.40, speed=13.81, satellites=10, angle=222.0100, fixquality=1
$GPRMC,213555.800,A,4305.1265,N,07741.0798,W,13.34,226.20,190319,,,A*42
$GPGGA,213556.000,4305.1260,N,07741.0805,W,1,10,0.97,151.4,M,-34.4,M,,*57
lng=-77.684661, lat=43.085441, altitude=151.40, speed=13.34, satellites=10, angle=226.2000, fixquality=1
$GPRMC,213556.200,A,4305.1256,N,07741.0812,W,13.01,231.71,190319,,,A*42
$GPGGA,213556.400,4305.1252,N,07741.0819,W,1,10,0.97,151.4,M,-34.4,M,,*5F
lng=-77.684684, lat=43.085426, altitude=151.40, speed=13.01, satellites=10, angle=231.7100, fixquality=1
$GPRMC,213556.600,A,4305.1248,N,07741.0827,W,12.61,239.43,190319,,,A*41
$GPGGA,213556.800,4305.1245,N,07741.0835,W,1,10,0.97,151.4,M,-34.4,M,,*5B
lng=-77.684707, lat=43.085414, altitude=151.40, speed=12.61, satellites=10, angle=239.4300, fixquality=1
$GPRMC,213557.000,A,4305.1242,N,07741.0844,W,12.41,248.02,190319,,,A*48
$GPGGA,213557.200,4305.1239,N,07741.0852,W,1,10,0.97,151.4,M,-34.4,M,,*5A
lng=-77.684738, lat=43.085399, altitude=151.40, speed=12.41, satellites=10, angle=248.0200, fixquality=1
$GPRMC,213557.400,A,4305.1238,N,07741.0861,W,12.09,256.20,190319,,,A*45
$GPGGA,213557.600,4305.1236,N,07741.0869,W,1,10,0.97,151.3,M,-34.4,M,,*5E
lng=-77.684768, lat=43.085399, altitude=151.40, speed=12.09, satellites=10, angle=256.2000, fixquality=1
$GPRMC,213557.800,A,4305.1235,N,07741.0878,W,12.08,264.87,190319,,,A*41
$GPGGA,213558.000,4305.1235,N,07741.0887,W,1,10,0.97,151.2,M,-34.4,M,,*55
lng=-77.684799, lat=43.085391, altitude=151.30, speed=12.08, satellites=10, angle=264.8700, fixquality=1
$GPRMC,213558.200,A,4305.1235,N,07741.0896,W,12.50,273.95,190319,,,A*4C
$GPGGA,213558.400,4305.1236,N,07741.0905,W,1,10,0.97,151.0,M,-34.4,M,,*5B
lng=-77.684822, lat=43.085391, altitude=151.20, speed=12.50, satellites=10, angle=273.9500, fixquality=1
$GPRMC,213558.600,A,4305.1237,N,07741.0915,W,12.99,282.51,190319,,,A*43
$GPGGA,213558.800,4305.1239,N,07741.0924,W,1,10,0.97,150.9,M,-34.4,M,,*53
lng=-77.684852, lat=43.085391, altitude=151.00, speed=12.99, satellites=10, angle=282.5100, fixquality=1
$GPRMC,213559.000,A,4305.1241,N,07741.0934,W,13.63,287.12,190319,,,A*40
$GPGGA,213559.200,4305.1244,N,07741.0944,W,1,10,0.97,150.8,M,-34.4,M,,*55
lng=-77.684890, lat=43.085399, altitude=150.90, speed=13.63, satellites=10, angle=287.1200, fixquality=1
$GPRMC,213559.400,A,4305.1246,N,07741.0954,W,14.10,290.22,190319,,,A*43
$GPGGA,213559.600,4305.1249,N,07741.0964,W,1,10,0.97,150.6,M,-34.4,M,,*50
lng=-77.684921, lat=43.085407, altitude=150.80, speed=14.10, satellites=10, angle=290.2200, fixquality=1
$GPRMC,213559.800,A,4305.1252,N,07741.0974,W,14.58,291.98,190319,,,A*44
$GPGGA,213600.000,4305.1255,N,07741.0985,W,1,10,0.97,150.5,M,-34.4,M,,*58
lng=-77.684951, lat=43.085414, altitude=150.60, speed=14.58, satellites=10, angle=291.9800, fixquality=1
$GPRMC,213600.200,A,4305.1258,N,07741.0995,W,14.89,292.57,190319,,,A*48
$GPGGA,213600.400,4305.1262,N,07741.1005,W,1,10,0.97,150.4,M,-34.4,M,,*59
lng=-77.684989, lat=43.085433, altitude=150.50, speed=14.89, satellites=10, angle=292.5700, fixquality=1
$GPRMC,213600.600,A,4305.1265,N,07741.1016,W,15.19,293.10,190319,,,A*4B
$GPGGA,213600.800,4305.1268,N,07741.1026,W,1,10,0.97,150.3,M,-34.4,M,,*59
lng=-77.685028, lat=43.085441, altitude=150.40, speed=15.19, satellites=10, angle=293.1000, fixquality=1
$GPRMC,213601.000,A,4305.1272,N,07741.1037,W,15.50,293.57,190319,,,A*47
$GPGGA,213601.200,4305.1275,N,07741.1048,W,1,10,0.97,150.2,M,-34.4,M,,*57
lng=-77.685058, lat=43.085456, altitude=150.30, speed=15.50, satellites=10, angle=293.5700, fixquality=1
$GPRMC,213601.400,A,4305.1279,N,07741.1059,W,15.50,294.02,190319,,,A*47
$GPGGA,213601.600,4305.1283,N,07741.1070,W,1,10,0.97,150.2,M,-34.4,M,,*51
lng=-77.685096, lat=43.085464, altitude=150.20, speed=15.50, satellites=10, angle=294.0200, fixquality=1
$GPRMC,213601.800,A,4305.1286,N,07741.1080,W,15.37,294.74,190319,,,A*4F
$GPGGA,213602.000,4305.1290,N,07741.1090,W,1,10,0.97,150.1,M,-34.4,M,,*5B
lng=-77.685134, lat=43.085472, altitude=150.20, speed=15.37, satellites=10, angle=294.7400, fixquality=1
$GPRMC,213602.200,A,4305.1293,N,07741.1100,W,15.11,294.77,190319,,,A*4C
$GPGGA,213602.400,4305.1296,N,07741.1110,W,1,10,0.97,150.2,M,-34.4,M,,*53
lng=-77.685165, lat=43.085491, altitude=150.10, speed=15.11, satellites=10, angle=294.7700, fixquality=1
$GPRMC,213602.600,A,4305.1299,N,07741.1120,W,15.00,294.81,190319,,,A*49
$GPGGA,213602.800,4305.1303,N,07741.1130,W,1,10,0.97,150.1,M,-34.4,M,,*53
lng=-77.685195, lat=43.085498, altitude=150.20, speed=15.00, satellites=10, angle=294.8100, fixquality=1
$GPRMC,213603.000,A,4305.1306,N,07741.1140,W,14.77,295.38,190319,,,A*4D
$GPGGA,213603.200,4305.1310,N,07741.1150,W,1,10,0.97,150.2,M,-34.4,M,,*5F
lng=-77.685226, lat=43.085506, altitude=150.10, speed=14.77, satellites=10, angle=295.3800, fixquality=1
$GPRMC,213603.400,A,4305.1313,N,07741.1160,W,14.47,296.54,190319,,,A*45
$GPGGA,213603.600,4305.1317,N,07741.1170,W,1,10,0.97,150.1,M,-34.4,M,,*5D
lng=-77.685272, lat=43.085521, altitude=150.20, speed=14.47, satellites=10, angle=296.5400, fixquality=1
$GPRMC,213603.800,A,4305.1320,N,07741.1180,W,13.89,297.16,190319,,,A*45
$GPGGA,213604.000,4305.1324,N,07741.1189,W,1,10,0.97,150.1,M,-34.4,M,,*5A
lng=-77.685302, lat=43.085529, altitude=150.10, speed=13.89, satellites=10, angle=297.1600, fixquality=1
$GPRMC,213604.200,A,4305.1328,N,07741.1199,W,13.10,299.84,190319,,,A*4D
$GPGGA,213604.400,4305.1331,N,07741.1207,W,1,10,0.97,150.0,M,-34.4,M,,*5E
lng=-77.685333, lat=43.085548, altitude=150.10, speed=13.10, satellites=10, angle=299.8400, fixquality=1
$GPRMC,213604.600,A,4305.1335,N,07741.1215,W,11.95,303.09,190319,,,A*4A
$GPGGA,213604.800,4305.1339,N,07741.1223,W,1,10,0.97,150.0,M,-34.4,M,,*5C
lng=-77.685356, lat=43.085556, altitude=150.00, speed=11.95, satellites=10, angle=303.0900, fixquality=1
$GPRMC,213605.000,A,4305.1342,N,07741.1229,W,10.46,306.67,190319,,,A*40
$GPGGA,213605.200,4305.1345,N,07741.1236,W,1,10,0.97,149.9,M,-34.4,M,,*59
lng=-77.685386, lat=43.085571, altitude=150.00, speed=10.46, satellites=10, angle=306.6700, fixquality=1
$GPRMC,213605.400,A,4305.1349,N,07741.1241,W,8.96,309.93,190319,,,A*71
$GPGGA,213605.600,4305.1352,N,07741.1246,W,1,10,0.97,149.9,M,-34.4,M,,*5C
lng=-77.685401, lat=43.085578, altitude=149.90, speed=8.96, satellites=10, angle=309.9300, fixquality=1
$GPRMC,213605.800,A,4305.1355,N,07741.1251,W,7.27,315.17,190319,,,A*75
$GPGGA,213606.000,4305.1357,N,07741.1254,W,1,10,0.97,149.8,M,-34.4,M,,*5E
lng=-77.685417, lat=43.085586, altitude=149.90, speed=7.27, satellites=10, angle=315.1700, fixquality=1
$GPRMC,213606.200,A,4305.1359,N,07741.1257,W,5.51,317.89,190319,,,A*70
$GPGGA,213606.400,4305.1361,N,07741.1260,W,1,10,0.97,149.8,M,-34.4,M,,*58
lng=-77.685424, lat=43.085594, altitude=149.80, speed=5.51, satellites=10, angle=317.8900, fixquality=1
$GPRMC,213606.600,A,4305.1363,N,07741.1262,W,4.09,319.60,190319,,,A*7E
$GPGGA,213606.800,4305.1364,N,07741.1264,W,1,10,0.97,149.7,M,-34.4,M,,*5A
lng=-77.685432, lat=43.085605, altitude=149.80, speed=4.09, satellites=10, angle=319.6000, fixquality=1
$GPRMC,213607.000,A,4305.1365,N,07741.1265,W,2.81,321.88,190319,,,A*73
