Vers 57
USE_SERIAL_FEEDBACK=false
DEVELOPMENT_MODE=false
USE_RMC_ONLY=false

$GPRMC,133653.200,A,4308.3017,N,07726.2615,W,0.14,150.57,190319,,,D*74
$GPGGA,133653.400,4308.3017,N,07726.2615,W,2,10,0.85,150.2,M,-34.4,M,0000,0000*52
lng=-77.437698, lat=43.138362, altitude=150.60, speed=0.14, satellites=11, angle=150.5700, fixquality=2
$GPRMC,133653.600,A,4308.3017,N,07726.2614,W,0.12,150.57,190319,,,D*77
$GPGGA,133653.800,4308.3017,N,07726.2614,W,2,11,0.82,150.1,M,-34.4,M,0000,0000*5A
lng=-77.437690, lat=43.138362, altitude=150.20, speed=0.12, satellites=10, angle=150.5700, fixquality=2
$GPRMC,133654.000,A,4308.3017,N,07726.2614,W,0.08,150.57,190319,,,D*7D
$GPGGA,133654.200,4308.3017,N,07726.2614,W,2,11,0.82,150.1,M,-34.4,M,0000,0000*57
lng=-77.437690, lat=43.138362, altitude=150.10, speed=0.08, satellites=11, angle=150.5700, fixquality=2
$GPRMC,133654.400,A,4308.3017,N,07726.2613,W,0.06,150.57,190319,,,D*70
$GPGGA,133654.600,4308.3018,N,07726.2613,W,2,11,0.82,150.0,M,-34.4,M,0000,0000*5A
lng=-77.437690, lat=43.138362, altitude=150.10, speed=0.06, satellites=11, angle=150.5700, fixquality=2
$GPRMC,133654.800,A,4308.3018,N,07726.2613,W,0.08,150.57,190319,,,D*7D
$GPGGA,133655.000,4308.3018,N,07726.2613,W,2,11,0.82,149.9,M,-34.4,M,0000,0000*5C
lng=-77.437690, lat=43.138362, altitude=150.00, speed=0.08, satellites=11, angle=150.5700, fixquality=2
$GPRMC,133655.200,A,4308.3018,N,07726.2613,W,0.09,150.57,190319,,,D*77
$GPGGA,133655.400,4308.3018,N,07726.2613,W,2,10,0.85,149.8,M,-34.4,M,0000,0000*5F
lng=-77.437690, lat=43.138362, altitude=149.90, speed=0.09, satellites=11, angle=150.5700, fixquality=2
$GPRMC,133655.600,A,4308.3017,N,07726.2613,W,0.06,150.57,190319,,,D*73
$GPGGA,133655.800,4308.3017,N,07726.2613,W,2,12,0.76,149.7,M,-34.4,M,0000,0000*5D
lng=-77.437690, lat=43.138362, altitude=149.80, speed=0.06, satellites=10, angle=150.5700, fixquality=2
$GPRMC,133656.000,A,4308.3017,N,07726.2613,W,0.05,150.57,190319,,,D*75
$GPGGA,133656.200,4308.3017,N,07726.2614,W,2,12,0.76,149.6,M,-34.4,M,0000,0000*52
lng=-77.437690, lat=43.138362, altitude=149.70, speed=0.05, satellites=12, angle=150.5700, fixquality=2
$GPRMC,133656.400,A,4308.3017,N,07726.2614,W,0.03,150.57,190319,,,D*70
$GPGGA,133656.600,4308.3017,N,07726.2614,W,2,12,0.76,149.5,M,-34.4,M,0000,0000*55
lng=-77.437690, lat=43.138362, altitude=149.60, speed=0.03, satellites=12, angle=150.5700, fixquality=2
$GPRMC,133656.800,A,4308.3017,N,07726.2614,W,0.02,150.57,190319,,,D*7D
$GPGGA,133657.000,4308.3016,N,07726.2614,W,2,12,0.76,149.4,M,-34.4,M,0000,0000*52
lng=-77.437690, lat=43.138362, altitude=149.50, speed=0.02, satellites=12, angle=150.5700, fixquality=2
$GPRMC,133657.200,A,4308.3016,N,07726.2615,W,0.05,150.57,190319,,,D*71
$GPGGA,133657.400,4308.3016,N,07726.2615,W,2,11,0.81,149.3,M,-34.4,M,0000,0000*5B
lng=-77.437698, lat=43.138362, altitude=149.40, speed=0.05, satellites=12, angle=150.5700, fixquality=2
$GPRMC,133657.600,A,4308.3016,N,07726.2615,W,0.05,150.57,190319,,,D*75
$GPGGA,133657.800,4308.3016,N,07726.2614,W,2,11,0.82,149.3,M,-34.4,M,0000,0000*55
lng=-77.437698, lat=43.138362, altitude=149.30, speed=0.05, satellites=11, angle=150.5700, fixquality=2
$GPRMC,133658.000,A,4308.3015,N,07726.2614,W,0.04,150.57,190319,,,D*7F
$GPGGA,133658.200,4308.3015,N,07726.2614,W,2,12,0.76,149.2,M,-34.4,M,0000,0000*5A
lng=-77.437690, lat=43.138355, altitude=149.30, speed=0.04, satellites=11, angle=150.5700, fixquality=2
$GPRMC,133658.400,A,4308.3015,N,07726.2614,W,0.06,150.57,190319,,,D*79
$GPGGA,133658.600,4308.3015,N,07726.2614,W,2,12,0.76,149.2,M,-34.4,M,0000,0000*5E
lng=-77.437690, lat=43.138355, altitude=149.20, speed=0.06, satellites=12, angle=150.5700, fixquality=2
$GPRMC,133658.800,A,4308.3015,N,07726.2614,W,0.06,150.57,190319,,,D*75
$GPGGA,133659.000,4308.3015,N,07726.2613,W,2,12,0.76,149.2,M,-34.4,M,0000,0000*5E
lng=-77.437690, lat=43.138355, altitude=149.20, speed=0.06, satellites=12, angle=150.5700, fixquality=2
$GPRMC,133659.200,A,4308.3015,N,07726.2613,W,0.05,150.57,190319,,,D*7A
$GPGGA,133659.400,4308.3015,N,07726.2613,W,2,11,0.82,149.1,M,-34.4,M,0000,0000*51
lng=-77.437690, lat=43.138355, altitude=149.20, speed=0.05, satellites=12, angle=150.5700, fixquality=2
$GPRMC,133659.600,A,4308.3015,N,07726.2613,W,0.10,150.57,190319,,,D*7A
$GPGGA,133659.800,4308.3015,N,07726.2613,W,2,11,0.81,149.1,M,-34.4,M,0000,0000*5E
lng=-77.437690, lat=43.138355, altitude=149.10, speed=0.10, satellites=11, angle=150.5700, fixquality=2
$GPRMC,133700.000,A,4308.3015,N,07726.2613,W,0.02,150.57,190319,,,D*72
$GPGGA,133700.200,4308.3015,N,07726.2613,W,2,11,0.81,149.1,M,-34.4,M,0000,0000*59
lng=-77.437690, lat=43.138355, altitude=149.10, speed=0.02, satellites=11, angle=150.5700, fixquality=2
$GPRMC,133700.400,A,4308.3015,N,07726.2613,W,0.03,150.57,190319,,,D*77
$GPGGA,133700.600,4308.3015,N,07726.2613,W,2,11,0.81,149.1,M,-34.4,M,0000,0000*5D
lng=-77.437690, lat=43.138355, altitude=149.10, speed=0.03, satellites=11, angle=150.5700, fixquality=2
$GPRMC,133700.800,A,4308.3015,N,07726.2613,W,0.04,150.57,190319,,,D*7C
$GPGGA,133701.000,4308.3015,N,07726.2613,W,2,11,0.81,149.1,M,-34.4,M,0000,0000*5A
lng=-77.437690, lat=43.138355, altitude=149.10, speed=0.04, satellites=11, angle=150.5700, fixquality=2
$GPRMC,133701.200,A,4308.3015,N,07726.2613,W,0.02,150.57,190319,,,D*71
$GPGGA,133701.400,4308.3015,N,07726.2613,W,2,11,0.81,149.1,M,-34.4,M,0000,0000*5E
lng=-77.437690, lat=43.138355, altitude=149.10, speed=0.02, satellites=11, angle=150.5700, fixquality=2
$GPRMC,133701.600,A,4308.3015,N,07726.2613,W,0.05,150.57,190319,,,D*72
$GPGGA,133701.800,4308.3015,N,07726.2613,W,2,11,0.81,149.1,M,-34.4,M,0000,0000*52
lng=-77.437690, lat=43.138355, altitude=149.10, speed=0.05, satellites=11, angle=150.5700, fixquality=2
$GPRMC,133702.000,A,4308.3015,N,07726.2613,W,0.28,150.57,190319,,,D*78
$GPGGA,133702.200,4308.3015,N,07726.2613,W,2,11,0.83,149.1,M,-34.4,M,0000,0000*59
lng=-77.437690, lat=43.138355, altitude=149.10, speed=0.28, satellites=11, angle=150.5700, fixquality=2
$GPRMC,133702.400,A,4308.3015,N,07726.2613,W,0.46,150.57,190319,,,D*74
$GPGGA,133702.600,4308.3015,N,07726.2613,W,2,11,0.83,149.1,M,-34.4,M,0000,0000*5D
lng=-77.437690, lat=43.138355, altitude=149.10, speed=0.46, satellites=11, angle=150.5700, fixquality=2
$GPRMC,133702.800,A,4308.3015,N,07726.2614,W,0.60,150.57,190319,,,D*7B
$GPGGA,133703.000,4308.3015,N,07726.2613,W,2,11,0.83,149.1,M,-34.4,M,0000,0000*5A
lng=-77.437690, lat=43.138355, altitude=149.10, speed=0.60, satellites=11, angle=150.5700, fixquality=2
$GPRMC,133703.200,A,4308.3015,N,07726.2614,W,0.63,150.57,190319,,,D*73
$GPGGA,133703.400,4308.3016,N,07726.2613,W,2,11,0.83,149.2,M,-34.4,M,0000,0000*5E
lng=-77.437690, lat=43.138355, altitude=149.10, speed=0.63, satellites=11, angle=150.5700, fixquality=2
$GPRMC,133703.600,A,4308.3016,N,07726.2614,W,0.63,357.16,190319,,,D*74
$GPGGA,133703.800,4308.3017,N,07726.2613,W,2,11,0.83,149.2,M,-34.4,M,0000,0000*53
lng=-77.437690, lat=43.138362, altitude=149.20, speed=0.63, satellites=11, angle=357.1600, fixquality=2
$GPRMC,133704.000,A,4308.3017,N,07726.2613,W,0.61,60.93,190319,,,D*4B
$GPGGA,133704.200,4308.3018,N,07726.2614,W,2,11,0.83,149.1,M,-34.4,M,0000,0000*55
lng=-77.437690, lat=43.138362, altitude=149.20, speed=0.61, satellites=11, angle=60.9300, fixquality=2
$GPRMC,133704.400,A,4308.3018,N,07726.2615,W,1.05,354.26,190319,,,D*7F
$GPGGA,133704.600,4308.3019,N,07726.2614,W,2,11,0.83,149.0,M,-34.4,M,0000,0000*51
lng=-77.437698, lat=43.138362, altitude=149.10, speed=1.05, satellites=11, angle=354.2600, fixquality=2
$GPRMC,133704.800,A,4308.3020,N,07726.2614,W,1.46,343.85,190319,,,D*71
$GPGGA,133705.000,4308.3021,N,07726.2614,W,2,12,0.78,148.8,M,-34.4,M,0000,0000*53
lng=-77.437690, lat=43.138362, altitude=149.00, speed=1.46, satellites=11, angle=343.8500, fixquality=2
$GPRMC,133705.200,A,4308.3022,N,07726.2614,W,1.70,352.41,190319,,,D*75
$GPGGA,133705.400,4308.3023,N,07726.2614,W,2,11,0.83,148.8,M,-34.4,M,0000,0000*52
lng=-77.437690, lat=43.138370, altitude=148.80, speed=1.70, satellites=12, angle=352.4100, fixquality=2
$GPRMC,133705.600,A,4308.3024,N,07726.2614,W,2.13,357.08,190319,,,D*79
$GPGGA,133705.800,4308.3025,N,07726.2615,W,2,11,0.83,148.7,M,-34.4,M,0000,0000*56
lng=-77.437690, lat=43.138370, altitude=148.80, speed=2.13, satellites=11, angle=357.0800, fixquality=2
$GPRMC,133706.000,A,4308.3026,N,07726.2615,W,2.32,4.15,190319,,,D*75
$GPGGA,133706.200,4308.3028,N,07726.2616,W,2,12,0.78,148.8,M,-34.4,M,0000,0000*59
lng=-77.437698, lat=43.138378, altitude=148.70, speed=2.32, satellites=11, angle=4.1500, fixquality=2
$GPRMC,133706.400,A,4308.3029,N,07726.2616,W,2.29,10.70,190319,,,D*41
$GPGGA,133706.600,4308.3030,N,07726.2617,W,2,11,0.82,149.0,M,-34.4,M,0000,0000*5A
lng=-77.437698, lat=43.138378, altitude=148.80, speed=2.29, satellites=12, angle=10.7000, fixquality=2
$GPRMC,133706.800,A,4308.3032,N,07726.2617,W,2.27,6.58,190319,,,D*75
$GPGGA,133707.000,4308.3033,N,07726.2618,W,2,12,0.78,149.1,M,-34.4,M,0000,0000*56
lng=-77.437698, lat=43.138385, altitude=149.00, speed=2.27, satellites=11, angle=6.5800, fixquality=2
$GPRMC,133707.200,A,4308.3034,N,07726.2619,W,2.36,8.12,190319,,,D*76
$GPGGA,133707.400,4308.3036,N,07726.2619,W,2,12,0.78,149.3,M,-34.4,M,0000,0000*54
lng=-77.437698, lat=43.138385, altitude=149.10, speed=2.36, satellites=12, angle=8.1200, fixquality=2
$GPRMC,133707.600,A,4308.3037,N,07726.2620,W,2.92,5.81,190319,,,D*72
$GPGGA,133707.800,4308.3038,N,07726.2620,W,2,12,0.78,149.5,M,-34.4,M,0000,0000*5A
lng=-77.437705, lat=43.138393, altitude=149.30, speed=2.92, satellites=12, angle=5.8100, fixquality=2
$GPRMC,133708.000,A,4308.3040,N,07726.2621,W,3.61,7.41,190319,,,D*79
$GPGGA,133708.200,4308.3042,N,07726.2621,W,2,12,0.78,149.7,M,-34.4,M,0000,0000*51
lng=-77.437705, lat=43.138404, altitude=149.50, speed=3.61, satellites=12, angle=7.4100, fixquality=2
$GPRMC,133708.400,A,4308.3044,N,07726.2622,W,3.99,4.98,190319,,,D*7A
$GPGGA,133708.600,4308.3046,N,07726.2622,W,2,12,0.78,149.9,M,-34.4,M,0000,0000*5C
lng=-77.437705, lat=43.138404, altitude=149.70, speed=3.99, satellites=12, angle=4.9800, fixquality=2
$GPRMC,133708.800,A,4308.3048,N,07726.2623,W,4.46,5.47,190319,,,D*7D
$GPGGA,133709.000,4308.3050,N,07726.2623,W,2,11,0.83,150.1,M,-34.4,M,0000,0000*5A
lng=-77.437705, lat=43.138412, altitude=149.90, speed=4.46, satellites=12, angle=5.4700, fixquality=2
$GPRMC,133709.200,A,4308.3053,N,07726.2624,W,4.77,5.19,190319,,,D*72
$GPGGA,133709.400,4308.3055,N,07726.2627,W,2,11,0.83,150.3,M,-34.4,M,0000,0000*5D
lng=-77.437705, lat=43.138420, altitude=150.10, speed=4.77, satellites=11, angle=5.1900, fixquality=2
$GPRMC,133709.600,A,4308.3058,N,07726.2629,W,5.28,5.96,190319,,,D*7C
$GPGGA,133709.800,4308.3061,N,07726.2631,W,2,11,0.83,150.5,M,-34.4,M,0000,0000*57
lng=-77.437713, lat=43.138427, altitude=150.30, speed=5.28, satellites=11, angle=5.9600, fixquality=2
$GPRMC,133710.000,A,4308.3063,N,07726.2632,W,5.77,6.09,190319,,,D*7F
$GPGGA,133710.200,4308.3066,N,07726.2633,W,2,11,0.83,150.7,M,-34.4,M,0000,0000*52
lng=-77.437721, lat=43.138435, altitude=150.50, speed=5.77, satellites=11, angle=6.0900, fixquality=2
$GPRMC,133710.400,A,4308.3069,N,07726.2634,W,5.88,7.21,190319,,,D*7C
$GPGGA,133710.600,4308.3072,N,07726.2635,W,2,11,0.83,150.8,M,-34.4,M,0000,0000*5A
lng=-77.437721, lat=43.138450, altitude=150.70, speed=5.88, satellites=11, angle=7.2100, fixquality=2
$GPRMC,133710.800,A,4308.3075,N,07726.2635,W,5.85,6.84,190319,,,D*7F
$GPGGA,133711.000,4308.3078,N,07726.2635,W,2,11,0.83,150.9,M,-34.4,M,0000,0000*56
lng=-77.437728, lat=43.138462, altitude=150.80, speed=5.85, satellites=11, angle=6.8400, fixquality=2
$GPRMC,133711.200,A,4308.3081,N,07726.2636,W,5.82,5.93,190319,,,D*7E
$GPGGA,133711.400,4308.3084,N,07726.2636,W,2,11,0.83,151.0,M,-34.4,M,0000,0000*5A
lng=-77.437728, lat=43.138469, altitude=150.90, speed=5.82, satellites=11, angle=5.9300, fixquality=2
$GPRMC,133711.600,A,4308.3087,N,07726.2636,W,5.76,8.01,190319,,,D*71
$GPGGA,133711.800,4308.3090,N,07726.2636,W,2,11,0.83,151.1,M,-34.4,M,0000,0000*52
lng=-77.437728, lat=43.138477, altitude=151.00, speed=5.76, satellites=11, angle=8.0100, fixquality=2
$GPRMC,133712.000,A,4308.3093,N,07726.2636,W,5.74,7.59,190319,,,D*71
$GPGGA,133712.200,4308.3096,N,07726.2636,W,2,11,0.83,151.2,M,-34.4,M,0000,0000*5E
lng=-77.437728, lat=43.138484, altitude=151.10, speed=5.74, satellites=11, angle=7.5900, fixquality=2
$GPRMC,133712.400,A,4308.3099,N,07726.2636,W,5.72,5.00,190319,,,D*77
$GPGGA,133712.600,4308.3102,N,07726.2636,W,2,10,0.96,151.3,M,-34.4,M,0000,0000*52
lng=-77.437728, lat=43.138500, altitude=151.20, speed=5.72, satellites=11, angle=5.0000, fixquality=2
$GPRMC,133712.800,A,4308.3105,N,07726.2636,W,5.67,3.58,190319,,,D*70
$GPGGA,133713.000,4308.3108,N,07726.2636,W,2,11,0.83,151.3,M,-34.4,M,0000,0000*5A
lng=-77.437728, lat=43.138507, altitude=151.30, speed=5.67, satellites=10, angle=3.5800, fixquality=2
$GPRMC,133713.200,A,4308.3111,N,07726.2636,W,5.47,3.45,190319,,,D*70
$GPGGA,133713.400,4308.3114,N,07726.2636,W,2,11,0.83,151.4,M,-34.4,M,0000,0000*54
lng=-77.437728, lat=43.138515, altitude=151.30, speed=5.47, satellites=11, angle=3.4500, fixquality=2
$GPRMC,133713.600,A,4308.3116,N,07726.2636,W,5.24,4.69,190319,,,D*7F
$GPGGA,133713.800,4308.3119,N,07726.2636,W,2,11,0.83,151.4,M,-34.4,M,0000,0000*55
lng=-77.437728, lat=43.138526, altitude=151.40, speed=5.24, satellites=11, angle=4.6900, fixquality=2
$GPRMC,133714.000,A,4308.3122,N,07726.2636,W,4.97,2.90,190319,,,D*70
$GPGGA,133714.200,4308.3125,N,07726.2636,W,2,11,0.83,151.4,M,-34.4,M,0000,0000*57
lng=-77.437728, lat=43.138534, altitude=151.40, speed=4.97, satellites=11, angle=2.9000, fixquality=2
$GPRMC,133714.400,A,4308.3127,N,07726.2636,W,4.61,5.43,190319,,,D*71
$GPGGA,133714.600,4308.3129,N,07726.2636,W,2,11,0.83,151.5,M,-34.4,M,0000,0000*5E
lng=-77.437728, lat=43.138542, altitude=151.40, speed=4.61, satellites=11, angle=5.4300, fixquality=2
$GPRMC,133714.800,A,4308.3131,N,07726.2636,W,4.36,4.32,190319,,,D*7F
$GPGGA,133715.000,4308.3134,N,07726.2636,W,2,11,0.83,151.5,M,-34.4,M,0000,0000*55
lng=-77.437728, lat=43.138549, altitude=151.50, speed=4.36, satellites=11, angle=4.3200, fixquality=2
$GPRMC,133715.200,A,4308.3136,N,07726.2636,W,3.55,5.07,190319,,,D*76
$GPGGA,133715.400,4308.3137,N,07726.2635,W,2,11,0.83,151.6,M,-34.4,M,0000,0000*52
lng=-77.437728, lat=43.138557, altitude=151.50, speed=3.55, satellites=11, angle=5.0700, fixquality=2
$GPRMC,133715.600,A,4308.3139,N,07726.2636,W,3.00,5.35,190319,,,D*7C
$GPGGA,133715.800,4308.3140,N,07726.2636,W,2,11,0.83,151.6,M,-34.4,M,0000,0000*5D
lng=-77.437728, lat=43.138565, altitude=151.60, speed=3.00, satellites=11, angle=5.3500, fixquality=2
$GPRMC,133716.000,A,4308.3141,N,07726.2636,W,2.19,5.84,190319,,,D*75
$GPGGA,133716.200,4308.3142,N,07726.2636,W,2,11,0.83,151.6,M,-34.4,M,0000,0000*56
lng=-77.437728, lat=43.138565, altitude=151.60, speed=2.19, satellites=11, angle=5.8400, fixquality=2
$GPRMC,133716.400,A,4308.3143,N,07726.2636,W,1.53,5.26,190319,,,D*76
$GPGGA,133716.600,4308.3144,N,07726.2636,W,2,11,0.82,151.7,M,-34.4,M,0000,0000*54
lng=-77.437728, lat=43.138572, altitude=151.60, speed=1.53, satellites=11, angle=5.2600, fixquality=2
$GPRMC,133716.800,A,4308.3144,N,07726.2636,W,0.74,3.61,190319,,,D*7C
$GPGGA,133717.000,4308.3144,N,07726.2636,W,2,11,0.83,151.7,M,-34.4,M,0000,0000*52
lng=-77.437728, lat=43.138572, altitude=151.70, speed=0.74, satellites=11, angle=3.6100, fixquality=2
$GPRMC,133717.200,A,4308.3144,N,07726.2636,W,0.21,3.61,190319,,,D*77
$GPGGA,133717.400,4308.3144,N,07726.2636,W,2,11,0.83,151.8,M,-34.4,M,0000,0000*59
lng=-77.437728, lat=43.138572, altitude=151.70, speed=0.21, satellites=11, angle=3.6100, fixquality=2
$GPRMC,133717.600,A,4308.3144,N,07726.2637,W,0.05,3.61,190319,,,D*74
$GPGGA,133717.800,4308.3144,N,07726.2637,W,2,11,0.81,151.8,M,-34.4,M,0000,0000*56
lng=-77.437728, lat=43.138572, altitude=151.80, speed=0.05, satellites=11, angle=3.6100, fixquality=2
$GPRMC,133718.000,A,4308.3144,N,07726.2637,W,0.03,3.61,190319,,,D*7B
$GPGGA,133718.200,4308.3144,N,07726.2637,W,2,11,0.83,151.8,M,-34.4,M,0000,0000*51
lng=-77.437728, lat=43.138572, altitude=151.80, speed=0.03, satellites=11, angle=3.6100, fixquality=2
$GPRMC,133718.400,A,4308.3144,N,07726.2638,W,0.02,3.61,190319,,,D*71
$GPGGA,133718.600,4308.3144,N,07726.2638,W,2,11,0.83,151.9,M,-34.4,M,0000,0000*5B
lng=-77.437728, lat=43.138572, altitude=151.80, speed=0.02, satellites=11, angle=3.6100, fixquality=2
$GPRMC,133718.800,A,4308.3144,N,07726.2638,W,0.02,3.61,190319,,,D*7D
$GPGGA,133719.000,4308.3144,N,07726.2638,W,2,11,0.81,151.9,M,-34.4,M,0000,0000*5E
lng=-77.437728, lat=43.138572, altitude=151.90, speed=0.02, satellites=11, angle=3.6100, fixquality=2
$GPRMC,133719.200,A,4308.3144,N,07726.2639,W,0.03,3.61,190319,,,D*76
$GPGGA,133719.400,4308.3143,N,07726.2639,W,2,11,0.81,151.9,M,-34.4,M,0000,0000*5C
lng=-77.437728, lat=43.138572, altitude=151.90, speed=0.03, satellites=11, angle=3.6100, fixquality=2
$GPRMC,133719.600,A,4308.3143,N,07726.2639,W,0.04,3.61,190319,,,D*72
$GPGGA,133719.800,4308.3143,N,07726.2639,W,2,11,0.81,152.0,M,-34.4,M,0000,0000*5A
lng=-77.437728, lat=43.138572, altitude=151.90, speed=0.04, satellites=11, angle=3.6100, fixquality=2
$GPRMC,133720.000,A,4308.3144,N,07726.2639,W,0.81,3.61,190319,,,D*74
$GPGGA,133720.200,4308.3144,N,07726.2639,W,2,11,0.83,152.0,M,-34.4,M,0000,0000*5F
lng=-77.437728, lat=43.138572, altitude=152.00, speed=0.81, satellites=11, angle=3.6100, fixquality=2
$GPRMC,133720.400,A,4308.3145,N,07726.2639,W,1.93,10.22,190319,,,D*46
$GPGGA,133720.600,4308.3146,N,07726.2639,W,2,11,0.83,152.0,M,-34.4,M,0000,0000*59
lng=-77.437728, lat=43.138572, altitude=152.00, speed=1.93, satellites=11, angle=10.2200, fixquality=2
$GPRMC,133720.800,A,4308.3147,N,07726.2638,W,2.55,10.25,190319,,,D*47
$GPGGA,133721.000,4308.3149,N,07726.2638,W,2,11,0.83,152.1,M,-34.4,M,0000,0000*51
lng=-77.437728, lat=43.138584, altitude=152.00, speed=2.55, satellites=11, angle=10.2500, fixquality=2
$GPRMC,133721.200,A,4308.3150,N,07726.2638,W,2.82,13.08,190319,,,D*4C
$GPGGA,133721.400,4308.3151,N,07726.2637,W,2,11,0.83,152.1,M,-34.4,M,0000,0000*53
lng=-77.437728, lat=43.138584, altitude=152.10, speed=2.82, satellites=11, angle=13.0800, fixquality=2
$GPRMC,133721.600,A,4308.3153,N,07726.2636,W,3.31,17.22,190319,,,D*40
$GPGGA,133721.800,4308.3154,N,07726.2634,W,2,11,0.81,152.1,M,-34.4,M,0000,0000*5B
lng=-77.437728, lat=43.138591, altitude=152.10, speed=3.31, satellites=11, angle=17.2200, fixquality=2
$GPRMC,133722.000,A,4308.3156,N,07726.2632,W,3.66,22.78,190319,,,D*4F
$GPGGA,133722.200,4308.3158,N,07726.2631,W,2,11,0.81,152.2,M,-34.4,M,0000,0000*58
lng=-77.437721, lat=43.138591, altitude=152.10, speed=3.66, satellites=11, angle=22.7800, fixquality=2
$GPRMC,133722.400,A,4308.3160,N,07726.2629,W,3.35,37.40,190319,,,D*4D
$GPGGA,133722.600,4308.3161,N,07726.2627,W,2,11,0.81,152.2,M,-34.4,M,0000,0000*51
lng=-77.437713, lat=43.138599, altitude=152.20, speed=3.35, satellites=11, angle=37.4000, fixquality=2
$GPRMC,133722.800,A,4308.3162,N,07726.2626,W,1.77,41.41,190319,,,D*48
$GPGGA,133723.000,4308.3163,N,07726.2626,W,2,11,0.83,152.2,M,-34.4,M,0000,0000*57
lng=-77.437713, lat=43.138607, altitude=152.20, speed=1.77, satellites=11, angle=41.4100, fixquality=2
$GPRMC,133723.200,A,4308.3164,N,07726.2626,W,1.07,49.62,190319,,,D*4B
$GPGGA,133723.400,4308.3164,N,07726.2625,W,2,11,0.82,152.2,M,-34.4,M,0000,0000*56
lng=-77.437713, lat=43.138607, altitude=152.20, speed=1.07, satellites=11, angle=49.6200, fixquality=2
$GPRMC,133723.600,A,4308.3165,N,07726.2625,W,0.55,47.68,190319,,,D*4F
$GPGGA,133723.800,4308.3165,N,07726.2625,W,2,11,0.83,152.2,M,-34.4,M,0000,0000*5A
lng=-77.437713, lat=43.138607, altitude=152.20, speed=0.55, satellites=11, angle=47.6800, fixquality=2
$GPRMC,133724.000,A,4308.3165,N,07726.2625,W,0.43,47.68,190319,,,D*49
$GPGGA,133724.200,4308.3164,N,07726.2626,W,2,11,0.81,152.2,M,-34.4,M,0000,0000*57
lng=-77.437713, lat=43.138607, altitude=152.20, speed=0.43, satellites=11, angle=47.6800, fixquality=2
$GPRMC,133724.400,A,4308.3164,N,07726.2627,W,1.96,236.77,190319,,,D*7D
$GPGGA,133724.600,4308.3163,N,07726.2628,W,2,11,0.81,152.2,M,-34.4,M,0000,0000*5A
lng=-77.437713, lat=43.138607, altitude=152.20, speed=1.96, satellites=11, angle=236.7700, fixquality=2
$GPRMC,133724.800,A,4308.3162,N,07726.2630,W,3.21,237.24,190319,,,D*78
$GPGGA,133725.000,4308.3161,N,07726.2632,W,2,11,0.81,152.2,M,-34.4,M,0000,0000*54
lng=-77.437721, lat=43.138607, altitude=152.20, speed=3.21, satellites=11, angle=237.2400, fixquality=2
$GPRMC,133725.200,A,4308.3160,N,07726.2635,W,4.54,247.67,190319,,,D*71
$GPGGA,133725.400,4308.3159,N,07726.2638,W,2,11,0.83,152.3,M,-34.4,M,0000,0000*52
lng=-77.437728, lat=43.138599, altitude=152.20, speed=4.54, satellites=11, angle=247.6700, fixquality=2
$GPRMC,133725.600,A,4308.3158,N,07726.2642,W,5.81,255.27,190319,,,D*70
$GPGGA,133725.800,4308.3157,N,07726.2647,W,2,11,0.83,152.2,M,-34.4,M,0000,0000*59
lng=-77.437736, lat=43.138599, altitude=152.30, speed=5.81, satellites=11, angle=255.2700, fixquality=2
$GPRMC,133726.000,A,4308.3157,N,07726.2652,W,7.12,265.61,190319,,,D*72
$GPGGA,133726.200,4308.3157,N,07726.2658,W,2,11,0.83,152.3,M,-34.4,M,0000,0000*5F
lng=-77.437751, lat=43.138599, altitude=152.20, speed=7.12, satellites=11, angle=265.6100, fixquality=2
$GPRMC,133726.400,A,4308.3157,N,07726.2664,W,8.52,274.76,190319,,,D*7E
$GPGGA,133726.600,4308.3158,N,07726.2670,W,2,11,0.82,152.3,M,-34.4,M,0000,0000*5F
lng=-77.437774, lat=43.138599, altitude=152.30, speed=8.52, satellites=11, angle=274.7600, fixquality=2
$GPRMC,133726.800,A,4308.3158,N,07726.2677,W,9.75,278.30,190319,,,D*75
$GPGGA,133727.000,4308.3159,N,07726.2685,W,2,11,0.82,152.3,M,-34.4,M,0000,0000*53
lng=-77.437789, lat=43.138599, altitude=152.30, speed=9.75, satellites=11, angle=278.3000, fixquality=2
$GPRMC,133727.200,A,4308.3160,N,07726.2693,W,10.82,280.20,190319,,,D*49
$GPGGA,133727.400,4308.3161,N,07726.2701,W,2,11,0.82,152.4,M,-34.4,M,0000,0000*56
lng=-77.437828, lat=43.138599, altitude=152.30, speed=10.82, satellites=11, angle=280.2000, fixquality=2
$GPRMC,133727.600,A,4308.3163,N,07726.2710,W,12.19,282.99,190319,,,D*44
$GPGGA,133727.800,4308.3164,N,07726.2719,W,2,11,0.82,152.4,M,-34.4,M,0000,0000*56
lng=-77.437850, lat=43.138607, altitude=152.40, speed=12.19, satellites=11, angle=282.9900, fixquality=2
$GPRMC,133728.000,A,4308.3166,N,07726.2728,W,13.42,286.13,190319,,,D*4A
$GPGGA,133728.200,4308.3168,N,07726.2737,W,2,11,0.83,152.5,M,-34.4,M,0000,0000*53
lng=-77.437881, lat=43.138607, altitude=152.40, speed=13.42, satellites=11, angle=286.1300, fixquality=2
$GPRMC,133728.400,A,4308.3171,N,07726.2748,W,14.72,287.21,190319,,,D*4A
$GPGGA,133728.600,4308.3174,N,07726.2758,W,2,11,0.82,152.6,M,-34.4,M,0000,0000*51
lng=-77.437911, lat=43.138614, altitude=152.50, speed=14.72, satellites=11, angle=287.2100, fixquality=2
$GPRMC,133728.800,A,4308.3177,N,07726.2770,W,15.78,289.18,190319,,,D*44
$GPGGA,133729.000,4308.3180,N,07726.2781,W,2,11,0.83,152.7,M,-34.4,M,0000,0000*59
lng=-77.437950, lat=43.138629, altitude=152.60, speed=15.78, satellites=11, angle=289.1800, fixquality=2
$GPRMC,133729.200,A,4308.3184,N,07726.2793,W,17.05,290.81,190319,,,D*4E
$GPGGA,133729.400,4308.3188,N,07726.2805,W,2,11,0.82,152.8,M,-34.4,M,0000,0000*58
lng=-77.437988, lat=43.138637, altitude=152.70, speed=17.05, satellites=11, angle=290.8100, fixquality=2
$GPRMC,133729.600,A,4308.3191,N,07726.2817,W,18.04,291.87,190319,,,D*44
$GPGGA,133729.800,4308.3195,N,07726.2830,W,2,11,0.82,153.0,M,-34.4,M,0000,0000*57
lng=-77.438026, lat=43.138656, altitude=152.80, speed=18.04, satellites=11, angle=291.8700, fixquality=2
$GPRMC,133730.000,A,4308.3199,N,07726.2843,W,19.08,294.22,190319,,,D*44
$GPGGA,133730.200,4308.3203,N,07726.2857,W,2,11,0.82,153.1,M,-34.4,M,0000,0000*59
lng=-77.438072, lat=43.138664, altitude=153.00, speed=19.08, satellites=11, angle=294.2200, fixquality=2
$GPRMC,133730.400,A,4308.3208,N,07726.2871,W,19.95,295.47,190319,,,D*4C
$GPGGA,133730.600,4308.3212,N,07726.2885,W,2,11,0.82,153.3,M,-34.4,M,0000,0000*50
lng=-77.438117, lat=43.138679, altitude=153.10, speed=19.95, satellites=11, angle=295.4700, fixquality=2
$GPRMC,133730.800,A,4308.3217,N,07726.2899,W,20.85,296.56,190319,,,D*40
$GPGGA,133731.000,4308.3223,N,07726.2913,W,2,11,0.82,153.4,M,-34.4,M,0000,0000*5C
lng=-77.438163, lat=43.138694, altitude=153.30, speed=20.85, satellites=11, angle=296.5600, fixquality=2
$GPRMC,133731.200,A,4308.3228,N,07726.2927,W,21.86,297.21,190319,,,D*40
$GPGGA,133731.400,4308.3234,N,07726.2942,W,2,11,0.83,153.5,M,-34.4,M,0000,0000*5A
lng=-77.438209, lat=43.138713, altitude=153.40, speed=21.86, satellites=11, angle=297.2100, fixquality=2
$GPRMC,133731.600,A,4308.3240,N,07726.2957,W,22.68,298.97,190319,,,D*4C
$GPGGA,133731.800,4308.3246,N,07726.2971,W,2,11,0.83,153.7,M,-34.4,M,0000,0000*51
lng=-77.438262, lat=43.138736, altitude=153.50, speed=22.68, satellites=11, angle=298.9700, fixquality=2
$GPRMC,133732.000,A,4308.3252,N,07726.2987,W,23.50,299.53,190319,,,D*44
$GPGGA,133732.200,4308.3259,N,07726.3002,W,2,11,0.83,153.9,M,-34.4,M,0000,0000*54
lng=-77.438316, lat=43.138751, altitude=153.70, speed=23.50, satellites=11, angle=299.5300, fixquality=2
$GPRMC,133732.400,A,4308.3265,N,07726.3017,W,24.10,301.47,190319,,,D*43
$GPGGA,133732.600,4308.3272,N,07726.3033,W,2,11,0.83,154.1,M,-34.4,M,0000,0000*54
lng=-77.438362, lat=43.138778, altitude=153.90, speed=24.10, satellites=11, angle=301.4700, fixquality=2
$GPRMC,133732.800,A,4308.3280,N,07726.3049,W,24.74,302.93,190319,,,D*47
$GPGGA,133733.000,4308.3287,N,07726.3064,W,2,11,0.82,154.3,M,-34.4,M,0000,0000*58
lng=-77.438407, lat=43.138801, altitude=154.10, speed=24.74, satellites=11, angle=302.9300, fixquality=2
$GPRMC,133733.200,A,4308.3295,N,07726.3080,W,25.36,303.23,190319,,,D*40
$GPGGA,133733.400,4308.3303,N,07726.3096,W,2,11,0.82,154.4,M,-34.4,M,0000,0000*5B
lng=-77.438468, lat=43.138828, altitude=154.30, speed=25.36, satellites=11, angle=303.2300, fixquality=2
$GPRMC,133733.600,A,4308.3311,N,07726.3113,W,26.17,303.65,190319,,,D*40
$GPGGA,133733.800,4308.3319,N,07726.3129,W,2,11,0.83,154.6,M,-34.4,M,0000,0000*5A
lng=-77.438522, lat=43.138851, altitude=154.40, speed=26.17, satellites=11, angle=303.6500, fixquality=2
$GPRMC,133734.000,A,4308.3328,N,07726.3146,W,26.73,303.33,190319,,,D*4A
$GPGGA,133734.200,4308.3336,N,07726.3163,W,2,11,0.82,154.7,M,-34.4,M,0000,0000*54
lng=-77.438575, lat=43.138881, altitude=154.60, speed=26.73, satellites=11, angle=303.3300, fixquality=2
$GPRMC,133734.400,A,4308.3344,N,07726.3180,W,27.24,303.08,190319,,,D*45
$GPGGA,133734.600,4308.3352,N,07726.3197,W,2,11,0.82,154.9,M,-34.4,M,0000,0000*57
lng=-77.438629, lat=43.138908, altitude=154.70, speed=27.24, satellites=11, angle=303.0800, fixquality=2
$GPRMC,133734.800,A,4308.3361,N,07726.3215,W,27.42,303.13,190319,,,D*4B
$GPGGA,133735.000,4308.3369,N,07726.3232,W,2,11,0.82,155.0,M,-34.4,M,0000,0000*5C
lng=-77.438690, lat=43.138931, altitude=154.90, speed=27.42, satellites=11, angle=303.1300, fixquality=2
$GPRMC,133735.200,A,4308.3378,N,07726.3250,W,27.66,303.06,190319,,,D*4B
$GPGGA,133735.400,4308.3386,N,07726.3268,W,2,11,0.83,155.2,M,-34.4,M,0000,0000*55
lng=-77.438751, lat=43.138965, altitude=155.00, speed=27.66, satellites=11, angle=303.0600, fixquality=2
$GPRMC,133735.600,A,4308.3395,N,07726.3287,W,28.78,302.60,190319,,,D*47
$GPGGA,133735.800,4308.3403,N,07726.3305,W,2,11,0.82,155.3,M,-34.4,M,0000,0000*59
lng=-77.438812, lat=43.138988, altitude=155.20, speed=28.78, satellites=11, angle=302.6000, fixquality=2
$GPRMC,133736.000,A,4308.3412,N,07726.3323,W,28.39,302.49,190319,,,D*4B
$GPGGA,133736.200,4308.3420,N,07726.3341,W,2,11,0.82,155.4,M,-34.4,M,0000,0000*56
lng=-77.438873, lat=43.139022, altitude=155.30, speed=28.39, satellites=11, angle=302.4900, fixquality=2
$GPRMC,133736.400,A,4308.3429,N,07726.3359,W,28.51,302.70,190319,,,D*4E
$GPGGA,133736.600,4308.3437,N,07726.3377,W,2,11,0.82,155.6,M,-34.4,M,0000,0000*53
lng=-77.438934, lat=43.139045, altitude=155.40, speed=28.51, satellites=11, angle=302.7000, fixquality=2
$GPRMC,133736.800,A,4308.3445,N,07726.3394,W,28.19,303.15,190319,,,D*47
$GPGGA,133737.000,4308.3454,N,07726.3411,W,2,11,0.82,155.7,M,-34.4,M,0000,0000*57
lng=-77.438987, lat=43.139080, altitude=155.60, speed=28.19, satellites=11, angle=303.1500, fixquality=2
$GPRMC,133737.200,A,4308.3462,N,07726.3428,W,27.46,303.96,190319,,,D*47
$GPGGA,133737.400,4308.3470,N,07726.3445,W,2,11,0.83,155.9,M,-34.4,M,0000,0000*5B
lng=-77.439048, lat=43.139102, altitude=155.70, speed=27.46, satellites=11, angle=303.9600, fixquality=2
$GPRMC,133737.600,A,4308.3479,N,07726.3461,W,26.03,304.89,190319,,,D*4D
$GPGGA,133737.800,4308.3487,N,07726.3477,W,2,10,0.89,156.1,M,-34.4,M,0000,0000*5E
lng=-77.439102, lat=43.139125, altitude=155.90, speed=26.03, satellites=11, angle=304.8900, fixquality=2
$GPRMC,133738.000,A,4308.3495,N,07726.3493,W,26.26,306.45,190319,,,D*4E
$GPGGA,133738.200,4308.3504,N,07726.3509,W,2,11,0.82,156.2,M,-34.4,M,0000,0000*50
lng=-77.439155, lat=43.139160, altitude=156.10, speed=26.26, satellites=10, angle=306.4500, fixquality=2
$GPRMC,133738.400,A,4308.3513,N,07726.3525,W,26.41,308.48,190319,,,D*4B
$GPGGA,133738.600,4308.3523,N,07726.3540,W,2,10,0.88,156.2,M,-34.4,M,0000,0000*57
lng=-77.439208, lat=43.139183, altitude=156.20, speed=26.41, satellites=11, angle=308.4800, fixquality=2
$GPRMC,133738.800,A,4308.3532,N,07726.3555,W,26.20,311.95,190319,,,D*4C
$GPGGA,133739.000,4308.3542,N,07726.3570,W,2,10,0.88,156.4,M,-34.4,M,0000,0000*52
lng=-77.439254, lat=43.139217, altitude=156.20, speed=26.20, satellites=10, angle=311.9500, fixquality=2
$GPRMC,133739.200,A,4308.3553,N,07726.3585,W,26.18,314.86,190319,,,D*41
$GPGGA,133739.400,4308.3563,N,07726.3599,W,2,10,0.88,156.6,M,-34.4,M,0000,0000*50
lng=-77.439308, lat=43.139259, altitude=156.40, speed=26.18, satellites=10, angle=314.8600, fixquality=2
$GPRMC,133739.600,A,4308.3574,N,07726.3612,W,26.09,319.52,190319,,,D*49
$GPGGA,133739.800,4308.3585,N,07726.3624,W,2,10,0.88,156.7,M,-34.4,M,0000,0000*50
lng=-77.439353, lat=43.139289, altitude=156.60, speed=26.09, satellites=10, angle=319.5200, fixquality=2
$GPRMC,133740.000,A,4308.3597,N,07726.3636,W,26.03,323.19,190319,,,D*46
$GPGGA,133740.200,4308.3608,N,07726.3648,W,2,10,0.88,156.8,M,-34.4,M,0000,0000*57
lng=-77.439399, lat=43.139331, altitude=156.70, speed=26.03, satellites=10, angle=323.1900, fixquality=2
$GPRMC,133740.400,A,4308.3620,N,07726.3659,W,26.05,326.38,190319,,,D*44
$GPGGA,133740.600,4308.3632,N,07726.3670,W,2,11,0.82,156.9,M,-34.4,M,0000,0000*5B
lng=-77.439430, lat=43.139362, altitude=156.80, speed=26.05, satellites=10, angle=326.3800, fixquality=2
$GPRMC,133740.800,A,4308.3644,N,07726.3681,W,26.29,329.37,190319,,,D*41
$GPGGA,133741.000,4308.3657,N,07726.3691,W,2,11,0.83,156.9,M,-34.4,M,0000,0000*51
lng=-77.439468, lat=43.139404, altitude=156.90, speed=26.29, satellites=11, angle=329.3700, fixquality=2
$GPRMC,133741.200,A,4308.3669,N,07726.3700,W,26.24,332.93,190319,,,D*44
$GPGGA,133741.400,4308.3682,N,07726.3709,W,2,11,0.83,157.0,M,-34.4,M,0000,0000*55
lng=-77.439498, lat=43.139446, altitude=156.90, speed=26.24, satellites=11, angle=332.9300, fixquality=2
$GPRMC,133741.600,A,4308.3696,N,07726.3717,W,26.31,337.33,190319,,,D*4D
$GPGGA,133741.800,4308.3709,N,07726.3725,W,2,11,0.82,157.1,M,-34.4,M,0000,0000*55
lng=-77.439529, lat=43.139492, altitude=157.00, speed=26.31, satellites=11, angle=337.3300, fixquality=2
$GPRMC,133742.000,A,4308.3723,N,07726.3732,W,26.33,340.93,190319,,,D*48
$GPGGA,133742.200,4308.3737,N,07726.3738,W,2,10,0.89,157.1,M,-34.4,M,0000,0000*57
lng=-77.439552, lat=43.139533, altitude=157.10, speed=26.33, satellites=11, angle=340.9300, fixquality=2
$GPRMC,133742.400,A,4308.3751,N,07726.3743,W,26.48,345.24,190319,,,D*4A
$GPGGA,133742.600,4308.3765,N,07726.3748,W,2,11,0.82,157.2,M,-34.4,M,0000,0000*5A
lng=-77.439575, lat=43.139583, altitude=157.10, speed=26.48, satellites=10, angle=345.2400, fixquality=2
$GPRMC,133742.800,A,4308.3779,N,07726.3752,W,26.33,349.94,190319,,,D*47
$GPGGA,133743.000,4308.3794,N,07726.3755,W,2,11,0.82,157.2,M,-34.4,M,0000,0000*5F
lng=-77.439582, lat=43.139633, altitude=157.20, speed=26.33, satellites=11, angle=349.9400, fixquality=2
$GPRMC,133743.200,A,4308.3808,N,07726.3758,W,26.04,354.84,190319,,,D*46
$GPGGA,133743.400,4308.3822,N,07726.3760,W,2,11,0.82,157.2,M,-34.4,M,0000,0000*5F
lng=-77.439598, lat=43.139682, altitude=157.20, speed=26.04, satellites=11, angle=354.8400, fixquality=2
$GPRMC,133743.600,A,4308.3836,N,07726.3760,W,25.40,358.82,190319,,,D*4D
$GPGGA,133743.800,4308.3850,N,07726.3760,W,2,10,0.88,157.2,M,-34.4,M,0000,0000*5D
lng=-77.439598, lat=43.139728, altitude=157.20, speed=25.40, satellites=11, angle=358.8200, fixquality=2
$GPRMC,133744.000,A,4308.3864,N,07726.3760,W,25.18,2.38,190319,,,D*4B
$GPGGA,133744.200,4308.3878,N,07726.3759,W,2,10,0.88,157.2,M,-34.4,M,0000,0000*50
lng=-77.439598, lat=43.139770, altitude=157.20, speed=25.18, satellites=10, angle=2.3800, fixquality=2
$GPRMC,133744.400,A,4308.3892,N,07726.3758,W,24.86,4.79,190319,,,D*48
$GPGGA,133744.600,4308.3906,N,07726.3756,W,2,11,0.82,157.3,M,-34.4,M,0000,0000*59
lng=-77.439598, lat=43.139820, altitude=157.20, speed=24.86, satellites=10, angle=4.7900, fixquality=2
$GPRMC,133744.800,A,4308.3920,N,07726.3754,W,24.67,5.81,190319,,,D*49
$GPGGA,133745.000,4308.3933,N,07726.3752,W,2,11,0.82,157.3,M,-34.4,M,0000,0000*5C
lng=-77.439590, lat=43.139869, altitude=157.30, speed=24.67, satellites=11, angle=5.8100, fixquality=2
$GPRMC,133745.200,A,4308.3947,N,07726.3750,W,24.53,7.28,190319,,,D*41
$GPGGA,133745.400,4308.3960,N,07726.3748,W,2,11,0.88,157.4,M,-34.4,M,0000,0000*58
lng=-77.439582, lat=43.139907, altitude=157.30, speed=24.53, satellites=11, angle=7.2800, fixquality=2
$GPRMC,133745.600,A,4308.3974,N,07726.3746,W,25.01,7.61,190319,,,D*49
$GPGGA,133745.800,4308.3988,N,07726.3743,W,2,12,0.82,157.4,M,-34.4,M,0000,0000*50
lng=-77.439575, lat=43.139957, altitude=157.40, speed=25.01, satellites=11, angle=7.6100, fixquality=2
$GPRMC,133746.000,A,4308.4002,N,07726.3741,W,25.39,8.11,190319,,,D*47
$GPGGA,133746.200,4308.4016,N,07726.3738,W,2,12,0.82,157.5,M,-34.4,M,0000,0000*5D
lng=-77.439567, lat=43.140007, altitude=157.40, speed=25.39, satellites=12, angle=8.1100, fixquality=2
$GPRMC,133746.400,A,4308.4030,N,07726.3735,W,25.74,8.66,190319,,,D*48
$GPGGA,133746.600,4308.4044,N,07726.3732,W,2,12,0.82,157.5,M,-34.4,M,0000,0000*54
lng=-77.439559, lat=43.140048, altitude=157.50, speed=25.74, satellites=12, angle=8.6600, fixquality=2
$GPRMC,133746.800,A,4308.4058,N,07726.3729,W,25.72,8.92,190319,,,D*4A
$GPGGA,133747.000,4308.4073,N,07726.3726,W,2,12,0.82,157.5,M,-34.4,M,0000,0000*52
lng=-77.439552, lat=43.140094, altitude=157.50, speed=25.72, satellites=12, angle=8.9200, fixquality=2
$GPRMC,133747.200,A,4308.4087,N,07726.3723,W,25.67,9.29,190319,,,D*4C
$GPGGA,133747.400,4308.4101,N,07726.3720,W,2,12,0.82,157.6,M,-34.4,M,0000,0000*57
lng=-77.439537, lat=43.140144, altitude=157.50, speed=25.67, satellites=12, angle=9.2900, fixquality=2
$GPRMC,133747.600,A,4308.4115,N,07726.3717,W,25.33,9.55,190319,,,D*4F
$GPGGA,133747.800,4308.4129,N,07726.3714,W,2,12,0.82,157.6,M,-34.4,M,0000,0000*56
lng=-77.439529, lat=43.140193, altitude=157.60, speed=25.33, satellites=12, angle=9.5500, fixquality=2
$GPRMC,133748.000,A,4308.4142,N,07726.3711,W,24.86,9.47,190319,,,D*4E
$GPGGA,133748.200,4308.4156,N,07726.3709,W,2,12,0.82,157.7,M,-34.4,M,0000,0000*56
lng=-77.439521, lat=43.140235, altitude=157.60, speed=24.86, satellites=12, angle=9.4700, fixquality=2
$GPRMC,133748.400,A,4308.4170,N,07726.3706,W,24.58,8.95,190319,,,D*40
$GPGGA,133748.600,4308.4183,N,07726.3703,W,2,12,0.82,157.8,M,-34.4,M,0000,0000*5F
lng=-77.439506, lat=43.140281, altitude=157.70, speed=24.58, satellites=12, angle=8.9500, fixquality=2
$GPRMC,133748.800,A,4308.4197,N,07726.3700,W,24.32,8.61,190319,,,D*44
$GPGGA,133749.000,4308.4210,N,07726.3697,W,2,12,0.82,157.9,M,-34.4,M,0000,0000*5C
lng=-77.439498, lat=43.140331, altitude=157.80, speed=24.32, satellites=12, angle=8.6100, fixquality=2
$GPRMC,133749.200,A,4308.4223,N,07726.3695,W,24.04,8.18,190319,,,D*45
$GPGGA,133749.400,4308.4236,N,07726.3692,W,2,12,0.82,158.0,M,-34.4,M,0000,0000*5F
lng=-77.439491, lat=43.140373, altitude=157.90, speed=24.04, satellites=12, angle=8.1800, fixquality=2
$GPRMC,133749.600,A,4308.4249,N,07726.3689,W,23.80,8.28,190319,,,D*48
$GPGGA,133749.800,4308.4262,N,07726.3687,W,2,12,0.82,158.0,M,-34.4,M,0000,0000*56
lng=-77.439483, lat=43.140415, altitude=158.00, speed=23.80, satellites=12, angle=8.2800, fixquality=2
$GPRMC,133750.000,A,4308.4275,N,07726.3684,W,23.32,8.19,190319,,,D*4F
$GPGGA,133750.200,4308.4288,N,07726.3682,W,2,12,0.82,158.1,M,-34.4,M,0000,0000*54
lng=-77.439468, lat=43.140460, altitude=158.00, speed=23.32, satellites=12, angle=8.1900, fixquality=2
$GPRMC,133750.400,A,4308.4300,N,07726.3679,W,23.09,8.34,190319,,,D*4D
$GPGGA,133750.600,4308.4313,N,07726.3677,W,2,12,0.82,158.1,M,-34.4,M,0000,0000*59
lng=-77.439460, lat=43.140502, altitude=158.10, speed=23.09, satellites=12, angle=8.3400, fixquality=2
$GPRMC,133750.800,A,4308.4325,N,07726.3674,W,22.53,8.37,190319,,,D*46
$GPGGA,133751.000,4308.4337,N,07726.3672,W,2,12,0.82,158.2,M,-34.4,M,0000,0000*5E
lng=-77.439453, lat=43.140544, altitude=158.10, speed=22.53, satellites=12, angle=8.3700, fixquality=2
$GPRMC,133751.200,A,4308.4349,N,07726.3669,W,22.00,8.50,190319,,,D*4C
$GPGGA,133751.400,4308.4361,N,07726.3667,W,2,12,0.82,158.3,M,-34.4,M,0000,0000*5C
lng=-77.439445, lat=43.140583, altitude=158.20, speed=22.00, satellites=12, angle=8.5000, fixquality=2
$GPRMC,133751.600,A,4308.4373,N,07726.3664,W,21.64,8.76,190319,,,D*49
$GPGGA,133751.800,4308.4385,N,07726.3662,W,2,12,0.82,158.4,M,-34.4,M,0000,0000*58
lng=-77.439437, lat=43.140625, altitude=158.30, speed=21.64, satellites=12, angle=8.7600, fixquality=2
$GPRMC,133752.000,A,4308.4396,N,07726.3659,W,21.21,8.83,190319,,,D*42
$GPGGA,133752.200,4308.4408,N,07726.3657,W,2,12,0.82,158.4,M,-34.4,M,0000,0000*55
lng=-77.439430, lat=43.140659, altitude=158.40, speed=21.21, satellites=12, angle=8.8300, fixquality=2
$GPRMC,133752.400,A,4308.4420,N,07726.3654,W,20.69,9.20,190319,,,D*44
$GPGGA,133752.600,4308.4431,N,07726.3652,W,2,12,0.82,158.5,M,-34.4,M,0000,0000*5F
lng=-77.439422, lat=43.140697, altitude=158.40, speed=20.69, satellites=12, angle=9.2000, fixquality=2
$GPRMC,133752.800,A,4308.4442,N,07726.3650,W,20.24,9.17,190319,,,D*45
$GPGGA,133753.000,4308.4453,N,07726.3647,W,2,12,0.83,158.6,M,-34.4,M,0000,0000*5A
lng=-77.439422, lat=43.140739, altitude=158.50, speed=20.24, satellites=12, angle=9.1700, fixquality=2
$GPRMC,133753.200,A,4308.4464,N,07726.3645,W,19.01,9.88,190319,,,D*45
$GPGGA,133753.400,4308.4474,N,07726.3643,W,2,12,0.82,158.7,M,-34.4,M,0000,0000*5F
lng=-77.439407, lat=43.140769, altitude=158.60, speed=19.01, satellites=12, angle=9.8800, fixquality=2
$GPRMC,133753.600,A,4308.4484,N,07726.3640,W,17.77,9.61,190319,,,D*42
$GPGGA,133753.800,4308.4494,N,07726.3638,W,2,12,0.82,158.7,M,-34.4,M,0000,0000*51
lng=-77.439399, lat=43.140804, altitude=158.70, speed=17.77, satellites=12, angle=9.6100, fixquality=2
$GPRMC,133754.000,A,4308.4502,N,07726.3636,W,15.88,10.07,190319,,,D*77
$GPGGA,133754.200,4308.4511,N,07726.3635,W,2,12,0.82,158.7,M,-34.4,M,0000,0000*5D
lng=-77.439399, lat=43.140834, altitude=158.70, speed=15.88, satellites=12, angle=10.0700, fixquality=2
$GPRMC,133754.400,A,4308.4519,N,07726.3634,W,13.85,10.26,190319,,,D*73
$GPGGA,133754.600,4308.4527,N,07726.3632,W,2,12,0.82,158.8,M,-34.4,M,0000,0000*54
lng=-77.439384, lat=43.140861, altitude=158.70, speed=13.85, satellites=12, angle=10.2600, fixquality=2
$GPRMC,133754.800,A,4308.4534,N,07726.3631,W,11.54,10.83,190319,,,D*74
$GPGGA,133755.000,4308.4539,N,07726.3630,W,2,12,0.82,158.8,M,-34.4,M,0000,0000*5E
lng=-77.439384, lat=43.140892, altitude=158.80, speed=11.54, satellites=12, angle=10.8300, fixquality=2
$GPRMC,133755.200,A,4308.4545,N,07726.3629,W,9.14,11.54,190319,,,D*46
$GPGGA,133755.400,4308.4549,N,07726.3628,W,2,12,0.82,158.8,M,-34.4,M,0000,0000*54
lng=-77.439376, lat=43.140911, altitude=158.80, speed=9.14, satellites=12, angle=11.5400, fixquality=2
$GPRMC,133755.600,A,4308.4553,N,07726.3627,W,6.74,11.99,190319,,,D*43
$GPGGA,133755.800,4308.4556,N,07726.3627,W,2,12,0.82,158.9,M,-34.4,M,0000,0000*58
lng=-77.439376, lat=43.140918, altitude=158.80, speed=6.74, satellites=12, angle=11.9900, fixquality=2
$GPRMC,133756.000,A,4308.4559,N,07726.3626,W,5.17,10.69,190319,,,D*45
$GPGGA,133756.200,4308.4562,N,07726.3626,W,2,12,0.82,158.9,M,-34.4,M,0000,0000*57
lng=-77.439376, lat=43.140933, altitude=158.90, speed=5.17, satellites=12, angle=10.6900, fixquality=2
$GPRMC,133756.400,A,4308.4565,N,07726.3625,W,4.82,10.91,190319,,,D*47
$GPGGA,133756.600,4308.4567,N,07726.3625,W,2,12,0.82,159.0,M,-34.4,M,0000,0000*5D
lng=-77.439369, lat=43.140941, altitude=158.90, speed=4.82, satellites=12, angle=10.9100, fixquality=2
$GPRMC,133756.800,A,4308.4570,N,07726.3625,W,5.29,8.08,190319,,,D*76
$GPGGA,133757.000,4308.4573,N,07726.3624,W,2,12,0.82,159.0,M,-34.4,M,0000,0000*5E
lng=-77.439369, lat=43.140949, altitude=159.00, speed=5.29, satellites=12, angle=8.0800, fixquality=2
$GPRMC,133757.200,A,4308.4577,N,07726.3624,W,6.60,358.83,190319,,,D*70
$GPGGA,133757.400,4308.4581,N,07726.3624,W,2,12,0.82,159.1,M,-34.4,M,0000,0000*56
lng=-77.439369, lat=43.140956, altitude=159.00, speed=6.60, satellites=12, angle=358.8300, fixquality=2
$GPRMC,133757.600,A,4308.4585,N,07726.3625,W,8.16,348.36,190319,,,D*78
$GPGGA,133757.800,4308.4590,N,07726.3627,W,2,12,0.82,159.2,M,-34.4,M,0000,0000*5A
lng=-77.439369, lat=43.140975, altitude=159.10, speed=8.16, satellites=12, angle=348.3600, fixquality=2
$GPRMC,133758.000,A,4308.4595,N,07726.3629,W,9.42,336.89,190319,,,D*71
$GPGGA,133758.200,4308.4599,N,07726.3633,W,2,12,0.82,159.2,M,-34.4,M,0000,0000*53
lng=-77.439376, lat=43.140991, altitude=159.20, speed=9.42, satellites=12, angle=336.8900, fixquality=2
$GPRMC,133758.400,A,4308.4604,N,07726.3637,W,10.72,320.20,190319,,,D*4E
$GPGGA,133758.600,4308.4609,N,07726.3643,W,2,11,0.82,159.3,M,-34.4,M,0000,0000*58
lng=-77.439399, lat=43.141006, altitude=159.20, speed=10.72, satellites=12, angle=320.2000, fixquality=2
$GPRMC,133758.800,A,4308.4613,N,07726.3649,W,11.78,307.97,190319,,,D*4F
$GPGGA,133759.000,4308.4617,N,07726.3657,W,2,11,0.82,159.2,M,-34.4,M,0000,0000*54
lng=-77.439414, lat=43.141025, altitude=159.30, speed=11.78, satellites=11, angle=307.9700, fixquality=2
$GPRMC,133759.200,A,4308.4620,N,07726.3665,W,13.15,298.17,190319,,,D*4C
$GPGGA,133759.400,4308.4623,N,07726.3674,W,2,11,0.82,159.1,M,-34.4,M,0000,0000*55
lng=-77.439445, lat=43.141033, altitude=159.20, speed=13.15, satellites=11, angle=298.1700, fixquality=2
$GPRMC,133759.600,A,4308.4627,N,07726.3684,W,14.35,294.10,190319,,,D*4E
$GPGGA,133759.800,4308.4630,N,07726.3694,W,2,11,0.82,159.0,M,-34.4,M,0000,0000*54
lng=-77.439468, lat=43.141048, altitude=159.10, speed=14.35, satellites=11, angle=294.1000, fixquality=2
$GPRMC,133800.000,A,4308.4632,N,07726.3705,W,15.81,290.35,190319,,,D*4A
$GPGGA,133800.200,4308.4635,N,07726.3716,W,2,11,0.82,158.8,M,-34.4,M,0000,0000*5A
lng=-77.439506, lat=43.141056, altitude=159.00, speed=15.81, satellites=11, angle=290.3500, fixquality=2
$GPRMC,133800.400,A,4308.4636,N,07726.3727,W,17.00,285.71,190319,,,D*45
$GPGGA,133800.600,4308.4637,N,07726.3740,W,2,10,0.89,158.7,M,-34.4,M,0000,0000*5A
lng=-77.439544, lat=43.141056, altitude=158.80, speed=17.00, satellites=11, angle=285.7100, fixquality=2
$GPRMC,133800.800,A,4308.4637,N,07726.3753,W,18.33,281.73,190319,,,D*42
$GPGGA,133801.000,4308.4638,N,07726.3766,W,2,11,0.82,158.5,M,-34.4,M,0000,0000*5E
lng=-77.439590, lat=43.141063, altitude=158.70, speed=18.33, satellites=10, angle=281.7300, fixquality=2
$GPRMC,133801.200,A,4308.4640,N,07726.3780,W,19.44,277.82,190319,,,D*41
$GPGGA,133801.400,4308.4641,N,07726.3794,W,2,11,0.82,158.4,M,-34.4,M,0000,0000*58
lng=-77.439628, lat=43.141063, altitude=158.50, speed=19.44, satellites=11, angle=277.8200, fixquality=2
$GPRMC,133801.600,A,4308.4643,N,07726.3809,W,21.22,277.04,190319,,,D*4D
$GPGGA,133801.800,4308.4644,N,07726.3824,W,2,11,0.82,158.2,M,-34.4,M,0000,0000*53
lng=-77.439682, lat=43.141071, altitude=158.40, speed=21.22, satellites=11, angle=277.0400, fixquality=2
$GPRMC,133802.000,A,4308.4646,N,07726.3840,W,22.78,277.23,190319,,,D*49
$GPGGA,133802.200,4308.4647,N,07726.3858,W,2,11,0.82,157.9,M,-34.4,M,0000,0000*56
lng=-77.439727, lat=43.141071, altitude=158.20, speed=22.78, satellites=11, angle=277.2300, fixquality=2
$GPRMC,133802.400,A,4308.4648,N,07726.3875,W,24.55,277.14,190319,,,D*48
$GPGGA,133802.600,4308.4649,N,07726.3894,W,2,11,0.82,157.7,M,-34.4,M,0000,0000*52
lng=-77.439796, lat=43.141078, altitude=157.90, speed=24.55, satellites=11, angle=277.1400, fixquality=2
$GPRMC,133802.800,A,4308.4650,N,07726.3913,W,26.31,277.08,190319,,,D*41
$GPGGA,133803.000,4308.4652,N,07726.3933,W,2,11,0.82,157.4,M,-34.4,M,0000,0000*50
lng=-77.439849, lat=43.141078, altitude=157.70, speed=26.31, satellites=11, angle=277.0800, fixquality=2
$GPRMC,133803.200,A,4308.4653,N,07726.3954,W,27.96,277.04,190319,,,D*4A
$GPGGA,133803.400,4308.4655,N,07726.3976,W,2,11,0.82,157.2,M,-34.4,M,0000,0000*54
lng=-77.439926, lat=43.141090, altitude=157.40, speed=27.96, satellites=11, angle=277.0400, fixquality=2
$GPRMC,133803.600,A,4308.4657,N,07726.3998,W,29.57,277.13,190319,,,D*4F
$GPGGA,133803.800,4308.4660,N,07726.4020,W,2,11,0.82,157.0,M,-34.4,M,0000,0000*51
lng=-77.439994, lat=43.141098, altitude=157.20, speed=29.57, satellites=11, angle=277.1300, fixquality=2
$GPRMC,133804.000,A,4308.4662,N,07726.4043,W,31.00,277.22,190319,,,D*49
$GPGGA,133804.200,4308.4665,N,07726.4066,W,2,11,0.82,156.7,M,-34.4,M,0000,0000*5D
lng=-77.440071, lat=43.141105, altitude=157.00, speed=31.00, satellites=11, angle=277.2200, fixquality=2
$GPRMC,133804.400,A,4308.4667,N,07726.4090,W,32.37,277.38,190319,,,D*4A
$GPGGA,133804.600,4308.4670,N,07726.4115,W,2,11,0.82,156.6,M,-34.4,M,0000,0000*59
lng=-77.440155, lat=43.141113, altitude=156.70, speed=32.37, satellites=11, angle=277.3800, fixquality=2
$GPRMC,133804.800,A,4308.4673,N,07726.4139,W,33.54,277.51,190319,,,D*4A
$GPGGA,133805.000,4308.4675,N,07726.4165,W,2,11,0.82,156.4,M,-34.4,M,0000,0000*5E
lng=-77.440231, lat=43.141120, altitude=156.60, speed=33.54, satellites=11, angle=277.5100, fixquality=2
$GPRMC,133805.200,A,4308.4677,N,07726.4191,W,34.43,277.39,190319,,,D*48
$GPGGA,133805.400,4308.4680,N,07726.4216,W,2,11,0.82,156.4,M,-34.4,M,0000,0000*57
lng=-77.440315, lat=43.141128, altitude=156.40, speed=34.43, satellites=11, angle=277.3900, fixquality=2
$GPRMC,133805.600,A,4308.4683,N,07726.4243,W,35.16,277.10,190319,,,D*41
$GPGGA,133805.800,4308.4685,N,07726.4269,W,2,11,0.82,156.3,M,-34.4,M,0000,0000*51
lng=-77.440406, lat=43.141136, altitude=156.40, speed=35.16, satellites=11, angle=277.1000, fixquality=2
$GPRMC,133806.000,A,4308.4688,N,07726.4296,W,35.78,277.01,190319,,,D*4F
$GPGGA,133806.200,4308.4691,N,07726.4323,W,2,11,0.82,156.3,M,-34.4,M,0000,0000*52
lng=-77.440498, lat=43.141147, altitude=156.30, speed=35.78, satellites=11, angle=277.0100, fixquality=2
$GPRMC,133806.400,A,4308.4694,N,07726.4351,W,36.27,277.06,190319,,,D*42
$GPGGA,133806.600,4308.4696,N,07726.4379,W,2,11,0.82,156.3,M,-34.4,M,0000,0000*5E
lng=-77.440582, lat=43.141155, altitude=156.30, speed=36.27, satellites=11, angle=277.0600, fixquality=2
$GPRMC,133806.800,A,4308.4699,N,07726.4407,W,37.21,277.35,190319,,,D*40
$GPGGA,133807.000,4308.4702,N,07726.4435,W,2,11,0.82,156.3,M,-34.4,M,0000,0000*5A
lng=-77.440681, lat=43.141162, altitude=156.30, speed=37.21, satellites=11, angle=277.3500, fixquality=2
$GPRMC,133807.200,A,4308.4704,N,07726.4464,W,37.44,277.66,190319,,,D*4E
$GPGGA,133807.400,4308.4707,N,07726.4493,W,2,10,0.88,156.5,M,-34.4,M,0000,0000*5A
lng=-77.440773, lat=43.141170, altitude=156.30, speed=37.44, satellites=11, angle=277.6600, fixquality=2
$GPRMC,133807.600,A,4308.4711,N,07726.4521,W,38.24,277.86,190319,,,D*49
$GPGGA,133807.800,4308.4714,N,07726.4550,W,2,10,0.88,156.7,M,-34.4,M,0000,0000*58
lng=-77.440872, lat=43.141185, altitude=156.50, speed=38.24, satellites=10, angle=277.8600, fixquality=2
$GPRMC,133808.000,A,4308.4718,N,07726.4580,W,38.95,277.16,190319,,,D*41
$GPGGA,133808.200,4308.4720,N,07726.4609,W,2,11,0.81,156.5,M,-34.4,M,0000,0000*5F
lng=-77.440963, lat=43.141193, altitude=156.70, speed=38.95, satellites=10, angle=277.1600, fixquality=2
$GPRMC,133808.400,A,4308.4723,N,07726.4638,W,38.92,277.34,190319,,,D*4A
$GPGGA,133808.600,4308.4727,N,07726.4668,W,2,11,0.81,156.4,M,-34.4,M,0000,0000*5A
lng=-77.441062, lat=43.141201, altitude=156.50, speed=38.92, satellites=11, angle=277.3400, fixquality=2
$GPRMC,133808.800,A,4308.4730,N,07726.4698,W,39.50,278.53,190319,,,D*4F
$GPGGA,133809.000,4308.4733,N,07726.4728,W,2,11,0.82,156.4,M,-34.4,M,0000,0000*5E
lng=-77.441162, lat=43.141220, altitude=156.40, speed=39.50, satellites=11, angle=278.5300, fixquality=2
$GPRMC,133809.200,A,4308.4737,N,07726.4758,W,40.16,278.11,190319,,,D*44
$GPGGA,133809.400,4308.4740,N,07726.4788,W,2,11,0.81,156.5,M,-34.4,M,0000,0000*56
lng=-77.441261, lat=43.141227, altitude=156.40, speed=40.16, satellites=11, angle=278.1100, fixquality=2
$GPRMC,133809.600,A,4308.4743,N,07726.4818,W,40.67,277.68,190319,,,D*4F
$GPGGA,133809.800,4308.4746,N,07726.4849,W,2,10,0.88,156.7,M,-34.4,M,0000,0000*54
lng=-77.441368, lat=43.141235, altitude=156.50, speed=40.67, satellites=11, angle=277.6800, fixquality=2
$GPRMC,133810.000,A,4308.4749,N,07726.4880,W,41.19,276.87,190319,,,D*42
$GPGGA,133810.200,4308.4751,N,07726.4911,W,2,11,0.81,156.9,M,-34.4,M,0000,0000*5A
lng=-77.441459, lat=43.141250, altitude=156.70, speed=41.19, satellites=10, angle=276.8700, fixquality=2
$GPRMC,133810.400,A,4308.4754,N,07726.4943,W,41.68,276.45,190319,,,D*4C
$GPGGA,133810.600,4308.4757,N,07726.4975,W,2,11,0.82,157.2,M,-34.4,M,0000,0000*53
lng=-77.441566, lat=43.141258, altitude=156.90, speed=41.68, satellites=11, angle=276.4500, fixquality=2
$GPRMC,133810.800,A,4308.4759,N,07726.5007,W,42.11,275.70,190319,,,D*4D
$GPGGA,133811.000,4308.4762,N,07726.5039,W,2,11,0.82,157.5,M,-34.4,M,0000,0000*55
lng=-77.441673, lat=43.141269, altitude=157.20, speed=42.11, satellites=11, angle=275.7000, fixquality=2
$GPRMC,133811.200,A,4308.4764,N,07726.5071,W,42.48,275.19,190319,,,D*4A
$GPGGA,133811.400,4308.4766,N,07726.5104,W,2,11,0.82,157.6,M,-34.4,M,0000,0000*59
lng=-77.441787, lat=43.141277, altitude=157.50, speed=42.48, satellites=11, angle=275.1900, fixquality=2
$GPRMC,133811.600,A,4308.4768,N,07726.5136,W,42.56,273.97,190319,,,D*4F
$GPGGA,133811.800,4308.4770,N,07726.5169,W,2,11,0.82,157.6,M,-34.4,M,0000,0000*59
lng=-77.441894, lat=43.141277, altitude=157.60, speed=42.56, satellites=11, angle=273.9700, fixquality=2
$GPRMC,133812.000,A,4308.4772,N,07726.5202,W,42.84,274.13,190319,,,D*41
$GPGGA,133812.200,4308.4774,N,07726.5235,W,2,10,0.86,157.7,M,-34.4,M,0000,0000*5A
lng=-77.442001, lat=43.141284, altitude=157.60, speed=42.84, satellites=11, angle=274.1300, fixquality=2
$GPRMC,133812.400,A,4308.4776,N,07726.5267,W,42.83,273.76,190319,,,D*41
$GPGGA,133812.600,4308.4777,N,07726.5300,W,2,11,0.82,157.7,M,-34.4,M,0000,0000*5F
lng=-77.442115, lat=43.141292, altitude=157.70, speed=42.83, satellites=10, angle=273.7600, fixquality=2
$GPRMC,133812.800,A,4308.4779,N,07726.5332,W,42.23,273.35,190319,,,D*4E
$GPGGA,133813.000,4308.4781,N,07726.5364,W,2,11,0.82,157.7,M,-34.4,M,0000,0000*53
lng=-77.442222, lat=43.141300, altitude=157.70, speed=42.23, satellites=11, angle=273.3500, fixquality=2
$GPRMC,133813.200,A,4308.4782,N,07726.5396,W,42.14,273.20,190319,,,D*4F
$GPGGA,133813.400,4308.4784,N,07726.5428,W,2,11,0.81,157.8,M,-34.4,M,0000,0000*51
lng=-77.442329, lat=43.141300, altitude=157.70, speed=42.14, satellites=11, angle=273.2000, fixquality=2
$GPRMC,133813.600,A,4308.4785,N,07726.5460,W,41.65,273.23,190319,,,D*44
$GPGGA,133813.800,4308.4787,N,07726.5492,W,2,11,0.82,157.7,M,-34.4,M,0000,0000*53
lng=-77.442428, lat=43.141307, altitude=157.80, speed=41.65, satellites=11, angle=273.2300, fixquality=2
$GPRMC,133814.000,A,4308.4788,N,07726.5523,W,41.58,273.00,190319,,,D*41
$GPGGA,133814.200,4308.4789,N,07726.5555,W,2,11,0.82,157.8,M,-34.4,M,0000,0000*55
lng=-77.442535, lat=43.141315, altitude=157.70, speed=41.58, satellites=11, angle=273.0000, fixquality=2
$GPRMC,133814.400,A,4308.4790,N,07726.5586,W,40.87,273.22,190319,,,D*40
$GPGGA,133814.600,4308.4792,N,07726.5617,W,2,11,0.82,157.8,M,-34.4,M,0000,0000*5E
lng=-77.442642, lat=43.141315, altitude=157.80, speed=40.87, satellites=11, angle=273.2200, fixquality=2
$GPRMC,133814.800,A,4308.4793,N,07726.5648,W,40.53,273.28,190319,,,D*4D
$GPGGA,133815.000,4308.4794,N,07726.5679,W,2,11,0.82,157.7,M,-34.4,M,0000,0000*58
lng=-77.442749, lat=43.141323, altitude=157.80, speed=40.53, satellites=11, angle=273.2800, fixquality=2
$GPRMC,133815.200,A,4308.4796,N,07726.5710,W,40.13,273.48,190319,,,D*4D
$GPGGA,133815.400,4308.4797,N,07726.5741,W,2,11,0.82,157.7,M,-34.4,M,0000,0000*55
lng=-77.442848, lat=43.141323, altitude=157.70, speed=40.13, satellites=11, angle=273.4800, fixquality=2
$GPRMC,133815.600,A,4308.4798,N,07726.5771,W,39.68,273.42,190319,,,D*48
$GPGGA,133815.800,4308.4799,N,07726.5802,W,2,11,0.82,157.8,M,-34.4,M,0000,0000*50
lng=-77.442955, lat=43.141334, altitude=157.70, speed=39.68, satellites=11, angle=273.4200, fixquality=2
$GPRMC,133816.000,A,4308.4801,N,07726.5832,W,39.27,273.17,190319,,,D*41
$GPGGA,133816.200,4308.4802,N,07726.5861,W,2,11,0.82,157.8,M,-34.4,M,0000,0000*51
lng=-77.443046, lat=43.141334, altitude=157.80, speed=39.27, satellites=11, angle=273.1700, fixquality=2
$GPRMC,133816.400,A,4308.4803,N,07726.5891,W,38.85,273.07,190319,,,D*46
$GPGGA,133816.600,4308.4805,N,07726.5921,W,2,11,0.82,157.8,M,-34.4,M,0000,0000*57
lng=-77.443145, lat=43.141342, altitude=157.80, speed=38.85, satellites=11, angle=273.0700, fixquality=2
$GPRMC,133816.800,A,4308.4806,N,07726.5950,W,38.34,272.64,190319,,,D*4D
$GPGGA,133817.000,4308.4807,N,07726.5979,W,2,11,0.82,157.9,M,-34.4,M,0000,0000*5E
lng=-77.443252, lat=43.141342, altitude=157.80, speed=38.34, satellites=11, angle=272.6400, fixquality=2
$GPRMC,133817.200,A,4308.4808,N,07726.6009,W,38.04,272.43,190319,,,D*48
$GPGGA,133817.400,4308.4809,N,07726.6037,W,2,11,0.82,158.0,M,-34.4,M,0000,0000*52
lng=-77.443351, lat=43.141349, altitude=157.90, speed=38.04, satellites=11, angle=272.4300, fixquality=2
$GPRMC,133817.600,A,4308.4809,N,07726.6066,W,37.80,272.32,190319,,,D*41
$GPGGA,133817.800,4308.4810,N,07726.6094,W,2,11,0.82,158.0,M,-34.4,M,0000,0000*5F
lng=-77.443443, lat=43.141349, altitude=158.00, speed=37.80, satellites=11, angle=272.3200, fixquality=2
$GPRMC,133818.000,A,4308.4811,N,07726.6122,W,37.63,271.80,190319,,,D*47
$GPGGA,133818.200,4308.4812,N,07726.6150,W,2,10,0.88,158.1,M,-34.4,M,0000,0000*5B
lng=-77.443534, lat=43.141349, altitude=158.00, speed=37.63, satellites=11, angle=271.8000, fixquality=2
$GPRMC,133818.400,A,4308.4813,N,07726.6178,W,37.44,272.36,190319,,,D*45
$GPGGA,133818.600,4308.4813,N,07726.6206,W,2,10,0.88,158.2,M,-34.4,M,0000,0000*5D
lng=-77.443626, lat=43.141357, altitude=158.10, speed=37.44, satellites=10, angle=272.3600, fixquality=2
$GPRMC,133818.800,A,4308.4813,N,07726.6233,W,37.25,270.92,190319,,,D*4E
$GPGGA,133819.000,4308.4814,N,07726.6261,W,2,10,0.88,158.2,M,-34.4,M,0000,0000*5C
lng=-77.443725, lat=43.141357, altitude=158.20, speed=37.25, satellites=10, angle=270.9200, fixquality=2
$GPRMC,133819.200,A,4308.4813,N,07726.6289,W,36.41,270.10,190319,,,D*4D
$GPGGA,133819.400,4308.4813,N,07726.6317,W,2,11,0.82,158.3,M,-34.4,M,0000,0000*55
lng=-77.443817, lat=43.141357, altitude=158.20, speed=36.41, satellites=10, angle=270.1000, fixquality=2
$GPRMC,133819.600,A,4308.4813,N,07726.6344,W,36.36,269.79,190319,,,D*4E
$GPGGA,133819.800,4308.4813,N,07726.6372,W,2,11,0.82,158.3,M,-34.4,M,0000,0000*5A
lng=-77.443901, lat=43.141357, altitude=158.30, speed=36.36, satellites=11, angle=269.7900, fixquality=2
$GPRMC,133820.000,A,4308.4813,N,07726.6399,W,36.33,269.46,190319,,,D*4B
$GPGGA,133820.200,4308.4813,N,07726.6427,W,2,11,0.82,158.3,M,-34.4,M,0000,0000*5D
lng=-77.444000, lat=43.141357, altitude=158.30, speed=36.33, satellites=11, angle=269.4600, fixquality=2
$GPRMC,133820.400,A,4308.4813,N,07726.6455,W,36.50,269.15,190319,,,D*4B
$GPGGA,133820.600,4308.4812,N,07726.6482,W,2,11,0.82,158.3,M,-34.4,M,0000,0000*57
lng=-77.444091, lat=43.141357, altitude=158.30, speed=36.50, satellites=11, angle=269.1500, fixquality=2
$GPRMC,133820.800,A,4308.4812,N,07726.6510,W,36.57,268.25,190319,,,D*43
$GPGGA,133821.000,4308.4811,N,07726.6538,W,2,11,0.82,158.3,M,-34.4,M,0000,0000*53
lng=-77.444183, lat=43.141349, altitude=158.30, speed=36.57, satellites=11, angle=268.2500, fixquality=2
$GPRMC,133821.200,A,4308.4810,N,07726.6566,W,36.89,267.76,190319,,,D*41
$GPGGA,133821.400,4308.4809,N,07726.6594,W,2,11,0.82,158.4,M,-34.4,M,0000,0000*5F
lng=-77.444282, lat=43.141349, altitude=158.30, speed=36.89, satellites=11, angle=267.7600, fixquality=2
$GPRMC,133821.600,A,4308.4808,N,07726.6622,W,36.97,267.50,190319,,,D*44
$GPGGA,133821.800,4308.4807,N,07726.6651,W,2,11,0.82,158.4,M,-34.4,M,0000,0000*57
lng=-77.444366, lat=43.141349, altitude=158.40, speed=36.97, satellites=11, angle=267.5000, fixquality=2
$GPRMC,133822.000,A,4308.4806,N,07726.6679,W,37.02,267.12,190319,,,D*4A
$GPGGA,133822.200,4308.4805,N,07726.6707,W,2,11,0.82,158.4,M,-34.4,M,0000,0000*5E
lng=-77.444465, lat=43.141342, altitude=158.40, speed=37.02, satellites=11, angle=267.1200, fixquality=2
$GPRMC,133822.400,A,4308.4804,N,07726.6735,W,37.13,267.08,190319,,,D*4E
$GPGGA,133822.600,4308.4803,N,07726.6764,W,2,11,0.82,158.6,M,-34.4,M,0000,0000*5B
lng=-77.444557, lat=43.141342, altitude=158.40, speed=37.13, satellites=11, angle=267.0800, fixquality=2
$GPRMC,133822.800,A,4308.4802,N,07726.6792,W,37.28,266.95,190319,,,D*44
$GPGGA,133823.000,4308.4801,N,07726.6820,W,2,11,0.82,158.7,M,-34.4,M,0000,0000*50
lng=-77.444656, lat=43.141334, altitude=158.60, speed=37.28, satellites=11, angle=266.9500, fixquality=2
$GPRMC,133823.200,A,4308.4800,N,07726.6849,W,37.28,266.56,190319,,,D*4B
$GPGGA,133823.400,4308.4798,N,07726.6877,W,2,11,0.82,158.8,M,-34.4,M,0000,0000*56
lng=-77.444747, lat=43.141334, altitude=158.70, speed=37.28, satellites=11, angle=266.5600, fixquality=2
$GPRMC,133823.600,A,4308.4797,N,07726.6905,W,37.17,266.57,190319,,,D*4A
$GPGGA,133823.800,4308.4796,N,07726.6933,W,2,11,0.82,158.9,M,-34.4,M,0000,0000*54
lng=-77.444839, lat=43.141323, altitude=158.80, speed=37.17, satellites=11, angle=266.5700, fixquality=2
$GPRMC,133824.000,A,4308.4794,N,07726.6962,W,37.15,265.97,190319,,,D*44
$GPGGA,133824.200,4308.4792,N,07726.6990,W,2,11,0.81,158.9,M,-34.4,M,0000,0000*57
lng=-77.444938, lat=43.141323, altitude=158.90, speed=37.15, satellites=11, angle=265.9700, fixquality=2
$GPRMC,133824.400,A,4308.4791,N,07726.7018,W,37.15,265.52,190319,,,D*49
$GPGGA,133824.600,4308.4789,N,07726.7047,W,2,11,0.82,159.0,M,-34.4,M,0000,0000*50
lng=-77.445030, lat=43.141315, altitude=158.90, speed=37.15, satellites=11, angle=265.5200, fixquality=2
$GPRMC,133824.800,A,4308.4788,N,07726.7075,W,37.12,265.52,190319,,,D*41
$GPGGA,133825.000,4308.4786,N,07726.7103,W,2,11,0.82,159.1,M,-34.4,M,0000,0000*58
lng=-77.445121, lat=43.141315, altitude=159.00, speed=37.12, satellites=11, angle=265.5200, fixquality=2
$GPRMC,133825.200,A,4308.4784,N,07726.7131,W,37.08,265.44,190319,,,D*4B
$GPGGA,133825.400,4308.4782,N,07726.7159,W,2,11,0.81,159.1,M,-34.4,M,0000,0000*54
lng=-77.445213, lat=43.141307, altitude=159.10, speed=37.08, satellites=11, angle=265.4400, fixquality=2
$GPRMC,133825.600,A,4308.4781,N,07726.7187,W,36.59,265.49,190319,,,D*4F
$GPGGA,133825.800,4308.4779,N,07726.7215,W,2,12,0.78,159.2,M,-34.4,M,0000,0000*51
lng=-77.445312, lat=43.141300, altitude=159.10, speed=36.59, satellites=11, angle=265.4900, fixquality=2
$GPRMC,133826.000,A,4308.4777,N,07726.7243,W,36.37,265.59,190319,,,D*41
$GPGGA,133826.200,4308.4775,N,07726.7271,W,2,11,0.81,159.4,M,-34.4,M,0000,0000*55
lng=-77.445404, lat=43.141292, altitude=159.20, speed=36.37, satellites=12, angle=265.5900, fixquality=2
