Vers 57
USE_SERIAL_FEEDBACK=false
DEVELOPMENT_MODE=false
USE_RMC_ONLY=false

$GPGGA,213544.600,4308.2997,N,07726.2671,W,2,10,0.88,150.9,M,-34.4,M,0000,0000*50
$GPRMC,213544.600,A,4308.2997,N,07726.2671,W,0.01,182.01,150319,,,D*72
lng=-77.437782, lat=43.138328, altitude=150.90, speed=0.00, satellites=10, angle=182.0100, fixquality=2
$GPGGA,213544.800,4308.2997,N,07726.2671,W,2,10,0.90,150.9,M,-34.4,M,0000,0000*57
$GPRMC,213544.800,A,4308.2997,N,07726.2671,W,0.01,182.01,150319,,,D*7C
lng=-77.437782, lat=43.138328, altitude=150.90, speed=0.01, satellites=10, angle=182.0100, fixquality=2
$GPGGA,213545.000,4308.2997,N,07726.2671,W,2,10,0.88,150.9,M,-34.4,M,0000,0000*57
$GPRMC,213545.000,A,4308.2997,N,07726.2671,W,0.01,182.01,150319,,,D*75
lng=-77.437782, lat=43.138328, altitude=150.90, speed=0.01, satellites=10, angle=182.0100, fixquality=2
$GPGGA,213545.200,4308.2997,N,07726.2671,W,2,10,0.88,150.9,M,-34.4,M,0000,0000*55
$GPRMC,213545.200,A,4308.2997,N,07726.2671,W,0.00,182.01,150319,,,D*76
lng=-77.437782, lat=43.138328, altitude=150.90, speed=0.01, satellites=10, angle=182.0100, fixquality=2
$GPGGA,213545.400,4308.2997,N,07726.2671,W,2,10,0.90,150.9,M,-34.4,M,0000,0000*5A
$GPRMC,213545.400,A,4308.2997,N,07726.2671,W,0.00,182.01,150319,,,D*70
lng=-77.437782, lat=43.138328, altitude=150.90, speed=0.00, satellites=10, angle=182.0100, fixquality=2
$GPGGA,213545.600,4308.2997,N,07726.2671,W,2,10,0.90,150.9,M,-34.4,M,0000,0000*58
$GPRMC,213545.600,A,4308.2997,N,07726.2671,W,0.00,182.01,150319,,,D*72
lng=-77.437782, lat=43.138328, altitude=150.90, speed=0.00, satellites=10, angle=182.0100, fixquality=2
$GPGGA,213545.800,4308.2997,N,07726.2671,W,2,10,0.90,150.9,M,-34.4,M,0000,0000*56
$GPRMC,213545.800,A,4308.2997,N,07726.2671,W,0.00,182.01,150319,,,D*7C
lng=-77.437782, lat=43.138328, altitude=150.90, speed=0.00, satellites=10, angle=182.0100, fixquality=2
$GPGGA,213546.000,4308.2997,N,07726.2671,W,2,10,0.90,150.9,M,-34.4,M,0000,0000*5D
$GPRMC,213546.000,A,4308.2997,N,07726.2671,W,0.00,182.01,150319,,,D*77
lng=-77.437782, lat=43.138328, altitude=150.90, speed=0.00, satellites=10, angle=182.0100, fixquality=2
$GPGGA,213546.200,4308.2997,N,07726.2671,W,2,10,0.90,150.9,M,-34.4,M,0000,0000*5F
$GPRMC,213546.200,A,4308.2997,N,07726.2671,W,0.00,182.01,150319,,,D*75
lng=-77.437782, lat=43.138328, altitude=150.90, speed=0.00, satellites=10, angle=182.0100, fixquality=2
$GPGGA,213546.400,4308.2997,N,07726.2671,W,2,10,0.90,150.9,M,-34.4,M,0000,0000*59
$GPRMC,213546.400,A,4308.2997,N,07726.2671,W,0.00,182.01,150319,,,D*73
lng=-77.437782, lat=43.138328, altitude=150.90, speed=0.00, satellites=10, angle=182.0100, fixquality=2
$GPGGA,213546.600,4308.2997,N,07726.2671,W,2,10,0.90,150.9,M,-34.4,M,0000,0000*5B
$GPRMC,213546.600,A,4308.2997,N,07726.2671,W,0.00,182.01,150319,,,D*71
lng=-77.437782, lat=43.138328, altitude=150.90, speed=0.00, satellites=10, angle=182.0100, fixquality=2
$GPGGA,213546.800,4308.2997,N,07726.2671,W,2,10,0.90,150.9,M,-34.4,M,0000,0000*55
$GPRMC,213546.800,A,4308.2997,N,07726.2671,W,0.00,182.01,150319,,,D*7F
lng=-77.437782, lat=43.138328, altitude=150.90, speed=0.00, satellites=10, angle=182.0100, fixquality=2
$GPGGA,213547.000,4308.2997,N,07726.2671,W,2,10,0.90,150.9,M,-34.4,M,0000,0000*5C
$GPRMC,213547.000,A,4308.2997,N,07726.2671,W,0.00,182.01,150319,,,D*76
lng=-77.437782, lat=43.138328, altitude=150.90, speed=0.00, satellites=10, angle=182.0100, fixquality=2
$GPGGA,213547.200,4308.2997,N,07726.2671,W,2,10,0.88,150.9,M,-34.4,M,0000,0000*57
$GPRMC,213547.200,A,4308.2997,N,07726.2671,W,0.01,182.01,150319,,,D*75
lng=-77.437782, lat=43.138328, altitude=150.90, speed=0.00, satellites=10, angle=182.0100, fixquality=2
$GPGGA,213547.400,4308.2997,N,07726.2671,W,2,10,0.88,150.9,M,-34.4,M,0000,0000*51
$GPRMC,213547.400,A,4308.2997,N,07726.2671,W,0.00,182.01,150319,,,D*72
lng=-77.437782, lat=43.138328, altitude=150.90, speed=0.01, satellites=10, angle=182.0100, fixquality=2
$GPGGA,213547.600,4308.2997,N,07726.2671,W,2,10,0.88,150.9,M,-34.4,M,0000,0000*53
$GPRMC,213547.600,A,4308.2997,N,07726.2671,W,0.00,182.01,150319,,,D*70
lng=-77.437782, lat=43.138328, altitude=150.90, speed=0.00, satellites=10, angle=182.0100, fixquality=2
$GPGGA,213547.800,4308.2997,N,07726.2671,W,2,10,0.88,150.9,M,-34.4,M,0000,0000*5D
$GPRMC,213547.800,A,4308.2997,N,07726.2671,W,0.00,182.01,150319,,,D*7E
lng=-77.437782, lat=43.138328, altitude=150.90, speed=0.00, satellites=10, angle=182.0100, fixquality=2
$GPGGA,213548.000,4308.2997,N,07726.2671,W,2,09,1.04,150.9,M,-34.4,M,0000,0000*57
$GPRMC,213548.000,A,4308.2997,N,07726.2671,W,0.00,182.01,150319,,,D*79
lng=-77.437782, lat=43.138328, altitude=150.90, speed=0.00, satellites=9, angle=182.0100, fixquality=2
$GPGGA,213548.200,4308.2997,N,07726.2671,W,2,10,0.88,150.9,M,-34.4,M,0000,0000*58
$GPRMC,213548.200,A,4308.2997,N,07726.2671,W,0.00,182.01,150319,,,D*7B
lng=-77.437782, lat=43.138328, altitude=150.90, speed=0.00, satellites=10, angle=182.0100, fixquality=2
$GPGGA,213548.400,4308.2997,N,07726.2671,W,2,10,0.90,150.9,M,-34.4,M,0000,0000*57
$GPRMC,213548.400,A,4308.2997,N,07726.2671,W,0.00,182.01,150319,,,D*7D
lng=-77.437782, lat=43.138328, altitude=150.90, speed=0.00, satellites=10, angle=182.0100, fixquality=2
$GPGGA,213548.600,4308.2997,N,07726.2671,W,2,09,1.19,150.9,M,-34.4,M,0000,0000*5D
$GPRMC,213548.600,A,4308.2997,N,07726.2671,W,0.00,182.01,150319,,,D*7F
lng=-77.437782, lat=43.138328, altitude=150.90, speed=0.00, satellites=9, angle=182.0100, fixquality=2
$GPGGA,213548.800,4308.2997,N,07726.2671,W,2,09,1.04,150.9,M,-34.4,M,0000,0000*5F
$GPRMC,213548.800,A,4308.2997,N,07726.2671,W,0.00,182.01,150319,,,D*71
lng=-77.437782, lat=43.138328, altitude=150.90, speed=0.00, satellites=9, angle=182.0100, fixquality=2
$GPGGA,213549.000,4308.2997,N,07726.2671,W,2,09,1.04,150.9,M,-34.4,M,0000,0000*56
$GPRMC,213549.000,A,4308.2997,N,07726.2671,W,0.00,182.01,150319,,,D*78
lng=-77.437782, lat=43.138328, altitude=150.90, speed=0.00, satellites=9, angle=182.0100, fixquality=2
$GPGGA,213549.200,4308.2997,N,07726.2671,W,2,09,1.19,150.9,M,-34.4,M,0000,0000*58
$GPRMC,213549.200,A,4308.2997,N,07726.2671,W,0.00,182.01,150319,,,D*7A
lng=-77.437782, lat=43.138328, altitude=150.90, speed=0.00, satellites=9, angle=182.0100, fixquality=2
$GPGGA,213549.400,4308.2997,N,07726.2671,W,2,09,1.04,150.9,M,-34.4,M,0000,0000*52
$GPRMC,213549.400,A,4308.2997,N,07726.2671,W,0.00,182.01,150319,,,D*7C
lng=-77.437782, lat=43.138328, altitude=150.90, speed=0.00, satellites=9, angle=182.0100, fixquality=2
$GPGGA,213549.600,4308.2997,N,07726.2671,W,2,09,1.19,150.9,M,-34.4,M,0000,0000*5C
$GPRMC,213549.600,A,4308.2997,N,07726.2671,W,0.00,182.01,150319,,,D*7E
lng=-77.437782, lat=43.138328, altitude=150.90, speed=0.00, satellites=9, angle=182.0100, fixquality=2
$GPGGA,213549.800,4308.2997,N,07726.2671,W,2,09,1.04,150.9,M,-34.4,M,0000,0000*5E
$GPRMC,213549.800,A,4308.2997,N,07726.2671,W,0.01,182.01,150319,,,D*71
lng=-77.437782, lat=43.138328, altitude=150.90, speed=0.00, satellites=9, angle=182.0100, fixquality=2
$GPGGA,213550.000,4308.2997,N,07726.2671,W,2,09,1.19,150.9,M,-34.4,M,0000,0000*52
$GPRMC,213550.000,A,4308.2997,N,07726.2671,W,0.00,182.01,150319,,,D*70
lng=-77.437782, lat=43.138328, altitude=150.90, speed=0.01, satellites=9, angle=182.0100, fixquality=2
$GPGGA,213550.200,4308.2997,N,07726.2671,W,2,09,1.19,150.9,M,-34.4,M,0000,0000*50
$GPRMC,213550.200,A,4308.2997,N,07726.2671,W,0.00,182.01,150319,,,D*72
lng=-77.437782, lat=43.138328, altitude=150.90, speed=0.00, satellites=9, angle=182.0100, fixquality=2
$GPGGA,213550.400,4308.2997,N,07726.2671,W,2,09,1.04,150.9,M,-34.4,M,0000,0000*5A
$GPRMC,213550.400,A,4308.2997,N,07726.2671,W,0.01,182.01,150319,,,D*75
lng=-77.437782, lat=43.138328, altitude=150.90, speed=0.00, satellites=9, angle=182.0100, fixquality=2
$GPGGA,213550.600,4308.2997,N,07726.2671,W,2,09,1.04,150.9,M,-34.4,M,0000,0000*58
$GPRMC,213550.600,A,4308.2997,N,07726.2671,W,0.00,182.01,150319,,,D*76
lng=-77.437782, lat=43.138328, altitude=150.90, speed=0.01, satellites=9, angle=182.0100, fixquality=2
$GPGGA,213550.800,4308.2997,N,07726.2671,W,2,09,1.04,150.9,M,-34.4,M,0000,0000*56
$GPRMC,213550.800,A,4308.2997,N,07726.2671,W,0.00,182.01,150319,,,D*78
lng=-77.437782, lat=43.138328, altitude=150.90, speed=0.00, satellites=9, angle=182.0100, fixquality=2
$GPGGA,213551.000,4308.2997,N,07726.2671,W,2,09,1.04,150.9,M,-34.4,M,0000,0000*5F
$GPRMC,213551.000,A,4308.2997,N,07726.2671,W,0.01,182.01,150319,,,D*70
lng=-77.437782, lat=43.138328, altitude=150.90, speed=0.00, satellites=9, angle=182.0100, fixquality=2
$GPGGA,213551.200,4308.2997,N,07726.2671,W,2,09,1.04,150.9,M,-34.4,M,0000,0000*5D
$GPRMC,213551.200,A,4308.2997,N,07726.2671,W,0.00,182.01,150319,,,D*73
lng=-77.437782, lat=43.138328, altitude=150.90, speed=0.01, satellites=9, angle=182.0100, fixquality=2
$GPGGA,213551.400,4308.2997,N,07726.2671,W,2,09,1.04,150.9,M,-34.4,M,0000,0000*5B
$GPRMC,213551.400,A,4308.2997,N,07726.2671,W,0.01,182.01,150319,,,D*74
lng=-77.437782, lat=43.138328, altitude=150.90, speed=0.00, satellites=9, angle=182.0100, fixquality=2
$GPGGA,213551.600,4308.2997,N,07726.2671,W,2,09,1.04,150.9,M,-34.4,M,0000,0000*59
$GPRMC,213551.600,A,4308.2997,N,07726.2671,W,0.00,182.01,150319,,,D*77
lng=-77.437782, lat=43.138328, altitude=150.90, speed=0.01, satellites=9, angle=182.0100, fixquality=2
$GPGGA,213551.800,4308.2997,N,07726.2671,W,2,09,1.04,150.9,M,-34.4,M,0000,0000*57
$GPRMC,213551.800,A,4308.2997,N,07726.2671,W,0.00,182.01,150319,,,D*79
lng=-77.437782, lat=43.138328, altitude=150.90, speed=0.00, satellites=9, angle=182.0100, fixquality=2
$GPGGA,213552.000,4308.2997,N,07726.2671,W,2,09,1.19,150.9,M,-34.4,M,0000,0000*50
$GPRMC,213552.000,A,4308.2997,N,07726.2671,W,0.00,182.01,150319,,,D*72
lng=-77.437782, lat=43.138328, altitude=150.90, speed=0.00, satellites=9, angle=182.0100, fixquality=2
$GPGGA,213552.200,4308.2997,N,07726.2671,W,2,09,1.04,150.9,M,-34.4,M,0000,0000*5E
$GPRMC,213552.200,A,4308.2997,N,07726.2671,W,0.00,182.01,150319,,,D*70
lng=-77.437782, lat=43.138328, altitude=150.90, speed=0.00, satellites=9, angle=182.0100, fixquality=2
$GPGGA,213552.400,4308.2997,N,07726.2671,W,2,09,1.19,150.9,M,-34.4,M,0000,0000*54
$GPRMC,213552.400,A,4308.2997,N,07726.2671,W,0.00,182.01,150319,,,D*76
lng=-77.437782, lat=43.138328, altitude=150.90, speed=0.00, satellites=9, angle=182.0100, fixquality=2
$GPGGA,213552.600,4308.2997,N,07726.2671,W,2,10,0.88,150.9,M,-34.4,M,0000,0000*57
$GPRMC,213552.600,A,4308.2997,N,07726.2671,W,0.00,182.01,150319,,,D*74
lng=-77.437782, lat=43.138328, altitude=150.90, speed=0.00, satellites=10, angle=182.0100, fixquality=2
$GPGGA,213552.800,4308.2997,N,07726.2671,W,2,10,0.90,150.9,M,-34.4,M,0000,0000*50
$GPRMC,213552.800,A,4308.2997,N,07726.2671,W,0.00,182.01,150319,,,D*7A
lng=-77.437782, lat=43.138328, altitude=150.90, speed=0.00, satellites=10, angle=182.0100, fixquality=2
$GPGGA,213553.000,4308.2997,N,07726.2671,W,2,10,0.90,150.9,M,-34.4,M,0000,0000*59
$GPRMC,213553.000,A,4308.2997,N,07726.2671,W,0.00,182.01,150319,,,D*73
lng=-77.437782, lat=43.138328, altitude=150.90, speed=0.00, satellites=10, angle=182.0100, fixquality=2
$GPGGA,213553.200,4308.2997,N,07726.2671,W,2,10,0.90,150.9,M,-34.4,M,0000,0000*5B
$GPRMC,213553.200,A,4308.2997,N,07726.2671,W,0.00,182.01,150319,,,D*71
lng=-77.437782, lat=43.138328, altitude=150.90, speed=0.00, satellites=10, angle=182.0100, fixquality=2
$GPGGA,213553.400,4308.2997,N,07726.2671,W,2,09,1.19,150.9,M,-34.4,M,0000,0000*55
$GPRMC,213553.400,A,4308.2997,N,07726.2671,W,0.00,182.01,150319,,,D*77
lng=-77.437782, lat=43.138328, altitude=150.90, speed=0.00, satellites=9, angle=182.0100, fixquality=2
$GPGGA,213553.600,4308.2997,N,07726.2671,W,2,10,0.88,150.9,M,-34.4,M,0000,0000*56
$GPRMC,213553.600,A,4308.2997,N,07726.2671,W,0.00,182.01,150319,,,D*75
lng=-77.437782, lat=43.138328, altitude=150.90, speed=0.00, satellites=10, angle=182.0100, fixquality=2
$GPGGA,213553.800,4308.2997,N,07726.2671,W,2,10,0.90,150.9,M,-34.4,M,0000,0000*51
$GPRMC,213553.800,A,4308.2997,N,07726.2671,W,0.00,182.01,150319,,,D*7B
lng=-77.437782, lat=43.138328, altitude=150.90, speed=0.00, satellites=10, angle=182.0100, fixquality=2
$GPGGA,213554.000,4308.2997,N,07726.2671,W,2,10,0.90,150.9,M,-34.4,M,0000,0000*5E
$GPRMC,213554.000,A,4308.2997,N,07726.2671,W,0.00,182.01,150319,,,D*74
lng=-77.437782, lat=43.138328, altitude=150.90, speed=0.00, satellites=10, angle=182.0100, fixquality=2
$GPGGA,213554.200,4308.2997,N,07726.2671,W,2,10,0.90,150.9,M,-34.4,M,0000,0000*5C
$GPRMC,213554.200,A,4308.2997,N,07726.2671,W,0.00,182.01,150319,,,D*76
lng=-77.437782, lat=43.138328, altitude=150.90, speed=0.00, satellites=10, angle=182.0100, fixquality=2
$GPGGA,213554.400,4308.2997,N,07726.2671,W,2,10,0.90,150.9,M,-34.4,M,0000,0000*5A
$GPRMC,213554.400,A,4308.2997,N,07726.2671,W,0.00,182.01,150319,,,D*70
lng=-77.437782, lat=43.138328, altitude=150.90, speed=0.00, satellites=10, angle=182.0100, fixquality=2
$GPGGA,213554.600,4308.2997,N,07726.2671,W,2,10,0.90,150.9,M,-34.4,M,0000,0000*58
$GPRMC,213554.600,A,4308.2997,N,07726.2671,W,0.00,182.01,150319,,,D*72
lng=-77.437782, lat=43.138328, altitude=150.90, speed=0.00, satellites=10, angle=182.0100, fixquality=2
$GPGGA,213554.800,4308.2997,N,07726.2671,W,2,10,0.90,150.9,M,-34.4,M,0000,0000*56
$GPRMC,213554.800,A,4308.2997,N,07726.2671,W,0.00,182.01,150319,,,D*7C
lng=-77.437782, lat=43.138328, altitude=150.90, speed=0.00, satellites=10, angle=182.0100, fixquality=2
$GPGGA,213555.000,4308.2997,N,07726.2671,W,2,10,0.90,150.9,M,-34.4,M,0000,0000*5F
$GPRMC,213555.000,A,4308.2997,N,07726.2671,W,0.00,182.01,150319,,,D*75
lng=-77.437782, lat=43.138328, altitude=150.90, speed=0.00, satellites=10, angle=182.0100, fixquality=2
$GPGGA,213555.200,4308.2997,N,07726.2671,W,2,10,0.90,150.9,M,-34.4,M,0000,0000*5D
$GPRMC,213555.200,A,4308.2997,N,07726.2671,W,0.00,182.01,150319,,,D*77
lng=-77.437782, lat=43.138328, altitude=150.90, speed=0.00, satellites=10, angle=182.0100, fixquality=2
$GPGGA,213555.400,4308.2997,N,07726.2671,W,2,10,0.90,150.9,M,-34.4,M,0000,0000*5B
$GPRMC,213555.400,A,4308.2997,N,07726.2671,W,0.00,182.01,150319,,,D*71
lng=-77.437782, lat=43.138328, altitude=150.90, speed=0.00, satellites=10, angle=182.0100, fixquality=2
$GPGGA,213555.600,4308.2997,N,07726.2671,W,2,10,0.90,150.9,M,-34.4,M,0000,0000*59
$GPRMC,213555.600,A,4308.2997,N,07726.2671,W,0.00,182.01,150319,,,D*73
lng=-77.437782, lat=43.138328, altitude=150.90, speed=0.00, satellites=10, angle=182.0100, fixquality=2
$GPGGA,213555.800,4308.2997,N,07726.2671,W,2,10,0.90,150.9,M,-34.4,M,0000,0000*57
$GPRMC,213555.800,A,4308.2997,N,07726.2671,W,0.00,182.01,150319,,,D*7D
lng=-77.437782, lat=43.138328, altitude=150.90, speed=0.00, satellites=10, angle=182.0100, fixquality=2
$GPGGA,213556.000,4308.2997,N,07726.2671,W,2,10,0.90,150.9,M,-34.4,M,0000,0000*5C
$GPRMC,213556.000,A,4308.2997,N,07726.2671,W,0.00,182.01,150319,,,D*76
lng=-77.437782, lat=43.138328, altitude=150.90, speed=0.00, satellites=10, angle=182.0100, fixquality=2
$GPGGA,213556.200,4308.2997,N,07726.2671,W,2,10,0.90,150.9,M,-34.4,M,0000,0000*5E
$GPRMC,213556.200,A,4308.2997,N,07726.2671,W,0.00,182.01,150319,,,D*74
lng=-77.437782, lat=43.138328, altitude=150.90, speed=0.00, satellites=10, angle=182.0100, fixquality=2
$GPGGA,213556.400,4308.2997,N,07726.2671,W,2,10,0.90,150.9,M,-34.4,M,0000,0000*58
$GPRMC,213556.400,A,4308.2997,N,07726.2671,W,0.00,182.01,150319,,,D*72
lng=-77.437782, lat=43.138328, altitude=150.90, speed=0.00, satellites=10, angle=182.0100, fixquality=2
$GPGGA,213556.600,4308.2997,N,07726.2671,W,2,10,0.90,150.9,M,-34.4,M,0000,0000*5A
$GPRMC,213556.600,A,4308.2997,N,07726.2671,W,0.00,182.01,150319,,,D*70
lng=-77.437782, lat=43.138328, altitude=150.90, speed=0.00, satellites=10, angle=182.0100, fixquality=2
$GPGGA,213556.800,4308.2997,N,07726.2671,W,2,09,1.19,150.9,M,-34.4,M,0000,0000*5C
$GPRMC,213556.800,A,4308.2997,N,07726.2671,W,0.00,182.01,150319,,,D*7E
lng=-77.437782, lat=43.138328, altitude=150.90, speed=0.00, satellites=9, angle=182.0100, fixquality=2
$GPGGA,213557.000,4308.2997,N,07726.2671,W,2,09,1.04,150.9,M,-34.4,M,0000,0000*59
$GPRMC,213557.000,A,4308.2997,N,07726.2671,W,0.01,182.01,150319,,,D*76
lng=-77.437782, lat=43.138328, altitude=150.90, speed=0.00, satellites=9, angle=182.0100, fixquality=2
$GPGGA,213557.200,4308.2997,N,07726.2671,W,2,09,1.04,150.9,M,-34.4,M,0000,0000*5B
$GPRMC,213557.200,A,4308.2997,N,07726.2671,W,0.00,182.01,150319,,,D*75
lng=-77.437782, lat=43.138328, altitude=150.90, speed=0.01, satellites=9, angle=182.0100, fixquality=2
$GPGGA,213557.400,4308.2997,N,07726.2671,W,2,09,1.04,150.9,M,-34.4,M,0000,0000*5D
$GPRMC,213557.400,A,4308.2997,N,07726.2671,W,0.00,182.01,150319,,,D*73
lng=-77.437782, lat=43.138328, altitude=150.90, speed=0.00, satellites=9, angle=182.0100, fixquality=2
$GPGGA,213557.600,4308.2997,N,07726.2671,W,2,09,1.04,150.9,M,-34.4,M,0000,0000*5F
$GPRMC,213557.600,A,4308.2997,N,07726.2671,W,0.00,182.01,150319,,,D*71
lng=-77.437782, lat=43.138328, altitude=150.90, speed=0.00, satellites=9, angle=182.0100, fixquality=2
$GPGGA,213557.800,4308.2997,N,07726.2671,W,2,09,1.04,150.9,M,-34.4,M,0000,0000*51
$GPRMC,213557.800,A,4308.2997,N,07726.2671,W,0.01,182.01,150319,,,D*7E
lng=-77.437782, lat=43.138328, altitude=150.90, speed=0.00, satellites=9, angle=182.0100, fixquality=2
$GPGGA,213558.000,4308.2997,N,07726.2671,W,2,09,1.04,150.9,M,-34.4,M,0000,0000*56
$GPRMC,213558.000,A,4308.2997,N,07726.2671,W,0.01,182.01,150319,,,D*79
lng=-77.437782, lat=43.138328, altitude=150.90, speed=0.01, satellites=9, angle=182.0100, fixquality=2
$GPGGA,213558.200,4308.2997,N,07726.2671,W,2,09,1.04,150.9,M,-34.4,M,0000,0000*54
$GPRMC,213558.200,A,4308.2997,N,07726.2671,W,0.00,182.01,150319,,,D*7A
lng=-77.437782, lat=43.138328, altitude=150.90, speed=0.01, satellites=9, angle=182.0100, fixquality=2
$GPGGA,213558.400,4308.2997,N,07726.2671,W,2,09,1.04,150.9,M,-34.4,M,0000,0000*52
$GPRMC,213558.400,A,4308.2997,N,07726.2671,W,0.00,182.01,150319,,,D*7C
lng=-77.437782, lat=43.138328, altitude=150.90, speed=0.00, satellites=9, angle=182.0100, fixquality=2
$GPGGA,213558.600,4308.2997,N,07726.2671,W,2,09,1.04,150.9,M,-34.4,M,0000,0000*50
$GPRMC,213558.600,A,4308.2997,N,07726.2671,W,0.00,182.01,150319,,,D*7E
lng=-77.437782, lat=43.138328, altitude=150.90, speed=0.00, satellites=9, angle=182.0100, fixquality=2
$GPGGA,213558.800,4308.2997,N,07726.2671,W,2,10,0.88,150.9,M,-34.4,M,0000,0000*53
$GPRMC,213558.800,A,4308.2997,N,07726.2671,W,0.00,182.01,150319,,,D*70
lng=-77.437782, lat=43.138328, altitude=150.90, speed=0.00, satellites=10, angle=182.0100, fixquality=2
$GPGGA,213559.000,4308.2997,N,07726.2671,W,2,10,0.90,150.9,M,-34.4,M,0000,0000*53
$GPRMC,213559.000,A,4308.2997,N,07726.2671,W,0.00,182.01,150319,,,D*79
lng=-77.437782, lat=43.138328, altitude=150.90, speed=0.00, satellites=10, angle=182.0100, fixquality=2
$GPGGA,213559.200,4308.2997,N,07726.2671,W,2,10,0.90,150.9,M,-34.4,M,0000,0000*51
$GPRMC,213559.200,A,4308.2997,N,07726.2671,W,0.00,182.01,150319,,,D*7B
lng=-77.437782, lat=43.138328, altitude=150.90, speed=0.00, satellites=10, angle=182.0100, fixquality=2
$GPGGA,213559.400,4308.2997,N,07726.2671,W,2,10,0.90,150.9,M,-34.4,M,0000,0000*57
$GPRMC,213559.400,A,4308.2997,N,07726.2671,W,0.00,182.01,150319,,,D*7D
lng=-77.437782, lat=43.138328, altitude=150.90, speed=0.00, satellites=10, angle=182.0100, fixquality=2
$GPGGA,213559.600,4308.2997,N,07726.2671,W,2,10,0.90,150.9,M,-34.4,M,0000,0000*55
$GPRMC,213559.600,A,4308.2997,N,07726.2671,W,0.00,182.01,150319,,,D*7F
lng=-77.437782, lat=43.138328, altitude=150.90, speed=0.00, satellites=10, angle=182.0100, fixquality=2
$GPGGA,213559.800,4308.2997,N,07726.2671,W,2,10,0.90,150.9,M,-34.4,M,0000,0000*5B
$GPRMC,213559.800,A,4308.2997,N,07726.2671,W,0.00,182.01,150319,,,D*71
lng=-77.437782, lat=43.138328, altitude=150.90, speed=0.00, satellites=10, angle=182.0100, fixquality=2
$GPGGA,213600.000,4308.2997,N,07726.2671,W,2,10,0.90,150.9,M,-34.4,M,0000,0000*5C
$GPRMC,213600.000,A,4308.2997,N,07726.2671,W,0.00,182.01,150319,,,D*76
lng=-77.437782, lat=43.138328, altitude=150.90, speed=0.00, satellites=10, angle=182.0100, fixquality=2
$GPGGA,213600.200,4308.2997,N,07726.2671,W,2,10,0.90,150.9,M,-34.4,M,0000,0000*5E
$GPRMC,213600.200,A,4308.2997,N,07726.2671,W,0.00,182.01,150319,,,D*74
lng=-77.437782, lat=43.138328, altitude=150.90, speed=0.00, satellites=10, angle=182.0100, fixquality=2
$GPGGA,213600.400,4308.2997,N,07726.2671,W,2,10,0.90,150.9,M,-34.4,M,0000,0000*58
$GPRMC,213600.400,A,4308.2997,N,07726.2671,W,0.00,182.01,150319,,,D*72
lng=-77.437782, lat=43.138328, altitude=150.90, speed=0.00, satellites=10, angle=182.0100, fixquality=2
$GPGGA,213600.600,4308.2997,N,07726.2671,W,2,09,1.10,150.9,M,-34.4,M,0000,0000*5B
$GPRMC,213600.600,A,4308.2997,N,07726.2671,W,0.00,182.01,150319,,,D*70
lng=-77.437782, lat=43.138328, altitude=150.90, speed=0.00, satellites=9, angle=182.0100, fixquality=2
$GPGGA,213600.800,4308.2997,N,07726.2671,W,2,10,0.90,150.9,M,-34.4,M,0000,0000*54
$GPRMC,213600.800,A,4308.2997,N,07726.2671,W,0.00,182.01,150319,,,D*7E
lng=-77.437782, lat=43.138328, altitude=150.90, speed=0.00, satellites=10, angle=182.0100, fixquality=2
$GPGGA,213601.000,4308.2997,N,07726.2671,W,2,10,0.90,150.9,M,-34.4,M,0000,0000*5D
$GPRMC,213601.000,A,4308.2997,N,07726.2671,W,0.00,182.01,150319,,,D*77
lng=-77.437782, lat=43.138328, altitude=150.90, speed=0.00, satellites=10, angle=182.0100, fixquality=2
$GPGGA,213601.200,4308.2997,N,07726.2671,W,2,10,0.90,150.9,M,-34.4,M,0000,0000*5F
$GPRMC,213601.200,A,4308.2997,N,07726.2671,W,0.00,182.01,150319,,,D*75
lng=-77.437782, lat=43.138328, altitude=150.90, speed=0.00, satellites=10, angle=182.0100, fixquality=2
$GPGGA,213601.400,4308.2997,N,07726.2671,W,2,10,0.90,150.9,M,-34.4,M,0000,0000*59
$GPRMC,213601.400,A,4308.2997,N,07726.2671,W,0.00,182.01,150319,,,D*73
lng=-77.437782, lat=43.138328, altitude=150.90, speed=0.00, satellites=10, angle=182.0100, fixquality=2
$GPGGA,213601.600,4308.2997,N,07726.2671,W,2,10,0.90,150.9,M,-34.4,M,0000,0000*5B
$GPRMC,213601.600,A,4308.2997,N,07726.2671,W,0.00,182.01,150319,,,D*71
lng=-77.437782, lat=43.138328, altitude=150.90, speed=0.00, satellites=10, angle=182.0100, fixquality=2
$GPGGA,213601.800,4308.2997,N,07726.2671,W,2,10,0.90,150.9,M,-34.4,M,0000,0000*55
$GPRMC,213601.800,A,4308.2997,N,07726.2671,W,0.00,182.01,150319,,,D*7F
lng=-77.437782, lat=43.138328, altitude=150.90, speed=0.00, satellites=10, angle=182.0100, fixquality=2
$GPGGA,213602.000,4308.2997,N,07726.2671,W,2,10,0.90,150.9,M,-34.4,M,0000,0000*5E
$GPRMC,213602.000,A,4308.2997,N,07726.2671,W,0.00,182.01,150319,,,D*74
lng=-77.437782, lat=43.138328, altitude=150.90, speed=0.00, satellites=10, angle=182.0100, fixquality=2
$GPGGA,213602.200,4308.2997,N,07726.2671,W,2,10,0.90,150.9,M,-34.4,M,0000,0000*5C
$GPRMC,213602.200,A,4308.2997,N,07726.2671,W,0.00,182.01,150319,,,D*76
lng=-77.437782, lat=43.138328, altitude=150.90, speed=0.00, satellites=10, angle=182.0100, fixquality=2
$GPGGA,213602.400,4308.2997,N,07726.2671,W,2,10,0.90,150.9,M,-34.4,M,0000,0000*5A
$GPRMC,213602.400,A,4308.2997,N,07726.2671,W,0.00,182.01,150319,,,D*70
lng=-77.437782, lat=43.138328, altitude=150.90, speed=0.00, satellites=10, angle=182.0100, fixquality=2
$GPGGA,213602.600,4308.2997,N,07726.2671,W,2,10,0.90,150.9,M,-34.4,M,0000,0000*58
$GPRMC,213602.600,A,4308.2997,N,07726.2671,W,0.00,182.01,150319,,,D*72
lng=-77.437782, lat=43.138328, altitude=150.90, speed=0.00, satellites=10, angle=182.0100, fixquality=2
$GPGGA,213602.800,4308.2997,N,07726.2671,W,2,10,0.90,150.9,M,-34.4,M,0000,0000*56
$GPRMC,213602.800,A,4308.2997,N,07726.2671,W,0.00,182.01,150319,,,D*7C
lng=-77.437782, lat=43.138328, altitude=150.90, speed=0.00, satellites=10, angle=182.0100, fixquality=2
$GPGGA,213603.000,4308.2997,N,07726.2671,W,2,09,1.19,150.9,M,-34.4,M,0000,0000*57
$GPRMC,213603.000,A,4308.2997,N,07726.2671,W,0.00,182.01,150319,,,D*75
lng=-77.437782, lat=43.138328, altitude=150.90, speed=0.00, satellites=9, angle=182.0100, fixquality=2
$GPGGA,213603.200,4308.2997,N,07726.2671,W,2,09,1.19,150.9,M,-34.4,M,0000,0000*55
$GPRMC,213603.200,A,4308.2997,N,07726.2671,W,0.00,182.01,150319,,,D*77
lng=-77.437782, lat=43.138328, altitude=150.90, speed=0.00, satellites=9, angle=182.0100, fixquality=2
$GPGGA,213603.400,4308.2997,N,07726.2671,W,2,09,1.19,150.9,M,-34.4,M,0000,0000*53
$GPRMC,213603.400,A,4308.2997,N,07726.2671,W,0.00,182.01,150319,,,D*71
lng=-77.437782, lat=43.138328, altitude=150.90, speed=0.00, satellites=9, angle=182.0100, fixquality=2
$GPGGA,213603.600,4308.2997,N,07726.2671,W,2,09,1.19,150.9,M,-34.4,M,0000,0000*51
$GPRMC,213603.600,A,4308.2997,N,07726.2671,W,0.00,182.01,150319,,,D*73
lng=-77.437782, lat=43.138328, altitude=150.90, speed=0.00, satellites=9, angle=182.0100, fixquality=2
$GPGGA,213603.800,4308.2997,N,07726.2671,W,2,09,1.04,150.9,M,-34.4,M,0000,0000*53
$GPRMC,213603.800,A,4308.2997,N,07726.2671,W,0.03,182.01,150319,,,D*7E
lng=-77.437782, lat=43.138328, altitude=150.90, speed=0.00, satellites=9, angle=182.0100, fixquality=2
$GPGGA,213604.000,4308.2997,N,07726.2671,W,2,09,1.04,150.9,M,-34.4,M,0000,0000*5C
$GPRMC,213604.000,A,4308.2997,N,07726.2671,W,0.04,182.01,150319,,,D*76
lng=-77.437782, lat=43.138328, altitude=150.90, speed=0.03, satellites=9, angle=182.0100, fixquality=2
$GPGGA,213604.200,4308.2997,N,07726.2671,W,2,09,1.04,150.9,M,-34.4,M,0000,0000*5E
$GPRMC,213604.200,A,4308.2997,N,07726.2671,W,0.04,182.01,150319,,,D*74
lng=-77.437782, lat=43.138328, altitude=150.90, speed=0.04, satellites=9, angle=182.0100, fixquality=2
$GPGGA,213604.400,4308.2997,N,07726.2671,W,2,09,1.04,150.9,M,-34.4,M,0000,0000*58
$GPRMC,213604.400,A,4308.2997,N,07726.2671,W,0.04,182.01,150319,,,D*72
lng=-77.437782, lat=43.138328, altitude=150.90, speed=0.04, satellites=9, angle=182.0100, fixquality=2
$GPGGA,213604.600,4308.2997,N,07726.2671,W,2,09,1.04,150.9,M,-34.4,M,0000,0000*5A
$GPRMC,213604.600,A,4308.2997,N,07726.2671,W,0.01,182.01,150319,,,D*75
lng=-77.437782, lat=43.138328, altitude=150.90, speed=0.04, satellites=9, angle=182.0100, fixquality=2
$GPGGA,213604.800,4308.2997,N,07726.2671,W,2,09,1.04,150.9,M,-34.4,M,0000,0000*54
$GPRMC,213604.800,A,4308.2997,N,07726.2671,W,0.05,182.01,150319,,,D*7F
lng=-77.437782, lat=43.138328, altitude=150.90, speed=0.01, satellites=9, angle=182.0100, fixquality=2
$GPGGA,213605.000,4308.2997,N,07726.2671,W,2,09,1.04,150.9,M,-34.4,M,0000,0000*5D
$GPRMC,213605.000,A,4308.2997,N,07726.2671,W,0.02,182.01,150319,,,D*71
lng=-77.437782, lat=43.138328, altitude=150.90, speed=0.05, satellites=9, angle=182.0100, fixquality=2
$GPGGA,213605.200,4308.2997,N,07726.2671,W,2,09,1.04,150.9,M,-34.4,M,0000,0000*5F
$GPRMC,213605.200,A,4308.2997,N,07726.2671,W,0.01,182.01,150319,,,D*70
lng=-77.437782, lat=43.138328, altitude=150.90, speed=0.02, satellites=9, angle=182.0100, fixquality=2
$GPGGA,213605.400,4308.2997,N,07726.2671,W,2,09,1.04,150.9,M,-34.4,M,0000,0000*59
$GPRMC,213605.400,A,4308.2997,N,07726.2671,W,0.03,182.01,150319,,,D*74
lng=-77.437782, lat=43.138328, altitude=150.90, speed=0.01, satellites=9, angle=182.0100, fixquality=2
$GPGGA,213605.600,4308.2997,N,07726.2671,W,2,09,1.04,150.9,M,-34.4,M,0000,0000*5B
$GPRMC,213605.600,A,4308.2997,N,07726.2671,W,0.02,182.01,150319,,,D*77
lng=-77.437782, lat=43.138328, altitude=150.90, speed=0.03, satellites=9, angle=182.0100, fixquality=2
$GPGGA,213605.800,4308.2997,N,07726.2671,W,2,09,1.04,150.9,M,-34.4,M,0000,0000*55
$GPRMC,213605.800,A,4308.2997,N,07726.2671,W,0.02,182.01,150319,,,D*79
lng=-77.437782, lat=43.138328, altitude=150.90, speed=0.02, satellites=9, angle=182.0100, fixquality=2
$GPGGA,213606.000,4308.2997,N,07726.2671,W,2,10,0.88,150.9,M,-34.4,M,0000,0000*53
$GPRMC,213606.000,A,4308.2997,N,07726.2671,W,0.00,182.01,150319,,,D*70
lng=-77.437782, lat=43.138328, altitude=150.90, speed=0.02, satellites=10, angle=182.0100, fixquality=2
$GPGGA,213606.200,4308.2997,N,07726.2671,W,2,10,0.90,150.9,M,-34.4,M,0000,0000*58
$GPRMC,213606.200,A,4308.2997,N,07726.2671,W,0.00,182.01,150319,,,D*72
lng=-77.437782, lat=43.138328, altitude=150.90, speed=0.00, satellites=10, angle=182.0100, fixquality=2
$GPGGA,213606.400,4308.2997,N,07726.2671,W,2,10,0.88,150.9,M,-34.4,M,0000,0000*57
$GPRMC,213606.400,A,4308.2997,N,07726.2671,W,0.00,182.01,150319,,,D*74
lng=-77.437782, lat=43.138328, altitude=150.90, speed=0.00, satellites=10, angle=182.0100, fixquality=2
$GPGGA,213606.600,4308.2997,N,07726.2671,W,2,10,0.90,150.9,M,-34.4,M,0000,0000*5C
$GPRMC,213606.600,A,4308.2997,N,07726.2671,W,0.00,182.01,150319,,,D*76
lng=-77.437782, lat=43.138328, altitude=150.90, speed=0.00, satellites=10, angle=182.0100, fixquality=2
$GPGGA,213606.800,4308.2997,N,07726.2671,W,2,10,0.88,150.9,M,-34.4,M,0000,0000*5B
$GPRMC,213606.800,A,4308.2997,N,07726.2671,W,0.00,182.01,150319,,,D*78
lng=-77.437782, lat=43.138328, altitude=150.90, speed=0.00, satellites=10, angle=182.0100, fixquality=2
$GPGGA,213607.000,4308.2997,N,07726.2671,W,2,10,0.90,150.9,M,-34.4,M,0000,0000*5B
$GPRMC,213607.000,A,4308.2997,N,07726.2671,W,0.00,182.01,150319,,,D*71
lng=-77.437782, lat=43.138328, altitude=150.90, speed=0.00, satellites=10, angle=182.0100, fixquality=2
$GPGGA,213607.200,4308.2997,N,07726.2671,W,2,10,0.90,150.9,M,-34.4,M,0000,0000*59
$GPRMC,213607.200,A,4308.2997,N,07726.2671,W,0.00,182.01,150319,,,D*73
lng=-77.437782, lat=43.138328, altitude=150.90, speed=0.00, satellites=10, angle=182.0100, fixquality=2
$GPGGA,213607.400,4308.2997,N,07726.2671,W,2,10,0.90,150.9,M,-34.4,M,0000,0000*5F
$GPRMC,213607.400,A,4308.2997,N,07726.2671,W,0.00,182.01,150319,,,D*75
lng=-77.437782, lat=43.138328, altitude=150.90, speed=0.00, satellites=10, angle=182.0100, fixquality=2
$GPGGA,213607.600,4308.2997,N,07726.2671,W,2,10,0.90,150.9,M,-34.4,M,0000,0000*5D
$GPRMC,213607.600,A,4308.2997,N,07726.2671,W,0.00,182.01,150319,,,D*77
lng=-77.437782, lat=43.138328, altitude=150.90, speed=0.00, satellites=10, angle=182.0100, fixquality=2
$GPGGA,213607.800,4308.2997,N,07726.2671,W,2,10,0.90,150.9,M,-34.4,M,0000,0000*53
$GPRMC,213607.800,A,4308.2997,N,07726.2671,W,0.00,182.01,150319,,,D*79
lng=-77.437782, lat=43.138328, altitude=150.90, speed=0.00, satellites=10, angle=182.0100, fixquality=2
$GPGGA,213608.000,4308.2997,N,07726.2671,W,2,10,0.90,150.9,M,-34.4,M,0000,0000*54
$GPRMC,213608.000,A,4308.2997,N,07726.2671,W,0.00,182.01,150319,,,D*7E
lng=-77.437782, lat=43.138328, altitude=150.90, speed=0.00, satellites=10, angle=182.0100, fixquality=2
$GPGGA,213608.200,4308.2997,N,07726.2671,W,2,09,1.19,150.9,M,-34.4,M,0000,0000*5E
$GPRMC,213608.200,A,4308.2997,N,07726.2671,W,0.00,182.01,150319,,,D*7C
lng=-77.437782, lat=43.138328, altitude=150.90, speed=0.00, satellites=9, angle=182.0100, fixquality=2
$GPGGA,213608.400,4308.2997,N,07726.2671,W,2,10,0.88,150.9,M,-34.4,M,0000,0000*59
$GPRMC,213608.400,A,4308.2997,N,07726.2671,W,0.01,182.01,150319,,,D*7B
lng=-77.437782, lat=43.138328, altitude=150.90, speed=0.00, satellites=10, angle=182.0100, fixquality=2
$GPGGA,213608.600,4308.2997,N,07726.2671,W,2,10,0.88,150.9,M,-34.4,M,0000,0000*5B
$GPRMC,213608.600,A,4308.2997,N,07726.2671,W,0.02,182.01,150319,,,D*7A
lng=-77.437782, lat=43.138328, altitude=150.90, speed=0.01, satellites=10, angle=182.0100, fixquality=2
$GPGGA,213608.800,4308.2997,N,07726.2671,W,2,10,0.88,150.9,M,-34.4,M,0000,0000*55
$GPRMC,213608.800,A,4308.2997,N,07726.2671,W,0.02,182.01,150319,,,D*74
lng=-77.437782, lat=43.138328, altitude=150.90, speed=0.02, satellites=10, angle=182.0100, fixquality=2
$GPGGA,213609.000,4308.2997,N,07726.2671,W,2,10,0.88,150.9,M,-34.4,M,0000,0000*5C
$GPRMC,213609.000,A,4308.2997,N,07726.2671,W,0.03,182.01,150319,,,D*7C
lng=-77.437782, lat=43.138328, altitude=150.90, speed=0.02, satellites=10, angle=182.0100, fixquality=2
$GPGGA,213609.200,4308.2997,N,07726.2671,W,2,10,0.88,150.9,M,-34.4,M,0000,0000*5E
$GPRMC,213609.200,A,4308.2997,N,07726.2671,W,0.04,182.01,150319,,,D*79
lng=-77.437782, lat=43.138328, altitude=150.90, speed=0.03, satellites=10, angle=182.0100, fixquality=2
$GPGGA,213609.400,4308.2997,N,07726.2671,W,2,10,0.88,150.9,M,-34.4,M,0000,0000*58
$GPRMC,213609.400,A,4308.2997,N,07726.2671,W,0.04,182.01,150319,,,D*7F
lng=-77.437782, lat=43.138328, altitude=150.90, speed=0.04, satellites=10, angle=182.0100, fixquality=2
$GPGGA,213609.600,4308.2997,N,07726.2671,W,2,10,0.88,150.9,M,-34.4,M,0000,0000*5A
$GPRMC,213609.600,A,4308.2997,N,07726.2671,W,0.03,182.01,150319,,,D*7A
lng=-77.437782, lat=43.138328, altitude=150.90, speed=0.04, satellites=10, angle=182.0100, fixquality=2
$GPGGA,213609.800,4308.2997,N,07726.2671,W,2,10,0.88,150.9,M,-34.4,M,0000,0000*54
$GPRMC,213609.800,A,4308.2997,N,07726.2671,W,0.02,182.01,150319,,,D*75
lng=-77.437782, lat=43.138328, altitude=150.90, speed=0.03, satellites=10, angle=182.0100, fixquality=2
$GPGGA,213610.000,4308.2997,N,07726.2671,W,2,10,0.88,150.9,M,-34.4,M,0000,0000*54
$GPRMC,213610.000,A,4308.2997,N,07726.2671,W,0.13,182.01,150319,,,D*75
lng=-77.437782, lat=43.138328, altitude=150.90, speed=0.02, satellites=10, angle=182.0100, fixquality=2
$GPGGA,213610.200,4308.2997,N,07726.2671,W,2,10,0.88,150.9,M,-34.4,M,0000,0000*56
$GPRMC,213610.200,A,4308.2997,N,07726.2671,W,0.24,182.01,150319,,,D*73
lng=-77.437782, lat=43.138328, altitude=150.90, speed=0.13, satellites=10, angle=182.0100, fixquality=2
$GPGGA,213610.400,4308.2997,N,07726.2671,W,2,10,0.88,150.9,M,-34.4,M,0000,0000*50
$GPRMC,213610.400,A,4308.2997,N,07726.2671,W,0.09,182.01,150319,,,D*7A
lng=-77.437782, lat=43.138328, altitude=150.90, speed=0.24, satellites=10, angle=182.0100, fixquality=2
$GPGGA,213610.600,4308.2997,N,07726.2671,W,2,10,0.88,150.9,M,-34.4,M,0000,0000*52
$GPRMC,213610.600,A,4308.2997,N,07726.2671,W,0.04,182.01,150319,,,D*75
lng=-77.437782, lat=43.138328, altitude=150.90, speed=0.09, satellites=10, angle=182.0100, fixquality=2
$GPGGA,213610.800,4308.2997,N,07726.2671,W,2,10,0.88,150.9,M,-34.4,M,0000,0000*5C
$GPRMC,213610.800,A,4308.2997,N,07726.2671,W,0.04,182.01,150319,,,D*7B
lng=-77.437782, lat=43.138328, altitude=150.90, speed=0.04, satellites=10, angle=182.0100, fixquality=2
$GPGGA,213611.000,4308.2997,N,07726.2671,W,2,10,0.88,150.9,M,-34.4,M,0000,0000*55
$GPRMC,213611.000,A,4308.2997,N,07726.2671,W,0.01,182.01,150319,,,D*77
lng=-77.437782, lat=43.138328, altitude=150.90, speed=0.04, satellites=10, angle=182.0100, fixquality=2
$GPGGA,213611.200,4308.2997,N,07726.2671,W,2,10,0.90,150.9,M,-34.4,M,0000,0000*5E
$GPRMC,213611.200,A,4308.2997,N,07726.2671,W,0.09,182.01,150319,,,D*7D
lng=-77.437782, lat=43.138328, altitude=150.90, speed=0.01, satellites=10, angle=182.0100, fixquality=2
$GPGGA,213611.400,4308.2997,N,07726.2671,W,2,10,0.88,150.9,M,-34.4,M,0000,0000*51
$GPRMC,213611.400,A,4308.2997,N,07726.2671,W,0.09,182.01,150319,,,D*7B
lng=-77.437782, lat=43.138328, altitude=150.90, speed=0.09, satellites=10, angle=182.0100, fixquality=2
$GPGGA,213611.600,4308.2997,N,07726.2671,W,2,10,0.88,150.9,M,-34.4,M,0000,0000*53
$GPRMC,213611.600,A,4308.2997,N,07726.2671,W,0.16,182.01,150319,,,D*77
lng=-77.437782, lat=43.138328, altitude=150.90, speed=0.09, satellites=10, angle=182.0100, fixquality=2
$GPGGA,213611.800,4308.2997,N,07726.2671,W,2,10,0.88,150.9,M,-34.4,M,0000,0000*5D
$GPRMC,213611.800,A,4308.2997,N,07726.2671,W,0.23,182.01,150319,,,D*7F
lng=-77.437782, lat=43.138328, altitude=150.90, speed=0.16, satellites=10, angle=182.0100, fixquality=2
$GPGGA,213612.000,4308.2997,N,07726.2671,W,2,10,0.88,150.9,M,-34.4,M,0000,0000*56
$GPRMC,213612.000,A,4308.2997,N,07726.2671,W,0.16,182.01,150319,,,D*72
lng=-77.437782, lat=43.138328, altitude=150.90, speed=0.23, satellites=10, angle=182.0100, fixquality=2
$GPGGA,213612.200,4308.2997,N,07726.2671,W,2,10,0.88,150.9,M,-34.4,M,0000,0000*54
$GPRMC,213612.200,A,4308.2997,N,07726.2671,W,0.09,182.01,150319,,,D*7E
lng=-77.437782, lat=43.138328, altitude=150.90, speed=0.16, satellites=10, angle=182.0100, fixquality=2
$GPGGA,213612.400,4308.2997,N,07726.2671,W,2,10,0.88,150.9,M,-34.4,M,0000,0000*52
$GPRMC,213612.400,A,4308.2997,N,07726.2671,W,0.08,182.01,150319,,,D*79
lng=-77.437782, lat=43.138328, altitude=150.90, speed=0.09, satellites=10, angle=182.0100, fixquality=2
$GPGGA,213612.600,4308.2997,N,07726.2672,W,2,10,0.88,150.9,M,-34.4,M,0000,0000*53
$GPRMC,213612.600,A,4308.2997,N,07726.2672,W,0.03,182.01,150319,,,D*73
lng=-77.437782, lat=43.138328, altitude=150.90, speed=0.08, satellites=10, angle=182.0100, fixquality=2
$GPGGA,213612.800,4308.2997,N,07726.2672,W,2,10,0.88,150.9,M,-34.4,M,0000,0000*5D
$GPRMC,213612.800,A,4308.2997,N,07726.2672,W,0.02,182.01,150319,,,D*7C
lng=-77.437782, lat=43.138328, altitude=150.90, speed=0.03, satellites=10, angle=182.0100, fixquality=2
$GPGGA,213613.000,4308.2997,N,07726.2672,W,2,10,0.88,150.9,M,-34.4,M,0000,0000*54
$GPRMC,213613.000,A,4308.2997,N,07726.2672,W,0.02,182.01,150319,,,D*75
lng=-77.437782, lat=43.138328, altitude=150.90, speed=0.02, satellites=10, angle=182.0100, fixquality=2
$GPGGA,213613.200,4308.2997,N,07726.2672,W,2,10,0.90,150.9,M,-34.4,M,0000,0000*5F
$GPRMC,213613.200,A,4308.2997,N,07726.2672,W,0.03,182.01,150319,,,D*76
lng=-77.437782, lat=43.138328, altitude=150.90, speed=0.02, satellites=10, angle=182.0100, fixquality=2
$GPGGA,213613.400,4308.2997,N,07726.2672,W,2,10,0.88,150.9,M,-34.4,M,0000,0000*50
$GPRMC,213613.400,A,4308.2997,N,07726.2672,W,0.06,182.01,150319,,,D*75
lng=-77.437782, lat=43.138328, altitude=150.90, speed=0.03, satellites=10, angle=182.0100, fixquality=2
$GPGGA,213613.600,4308.2997,N,07726.2672,W,2,10,0.88,150.9,M,-34.4,M,0000,0000*52
$GPRMC,213613.600,A,4308.2997,N,07726.2672,W,0.01,182.01,150319
lng=-77.437782, lat=43.138328, altitude=150.90, speed=0.06, satellites=10, angle=182.0100, fixquality=2
$GPGGA,213613.800,4308.2997,N,07726.2672,W,2,10,0.88,150.9,M,-34.4,M,0000,0000*5C
$GPRMC,213613.800,A,4308.2997,N,07726.2672,W,0.07,182.01,150319,,,D*78
lng=-77.437782, lat=43.138328, altitude=150.90, speed=0.01, satellites=10, angle=182.0100, fixquality=2
$GPGGA,213614.000,4308.2997,N,07726.2672,W,2,10,0.88,150.9,M,-34.4,M,0000,0000*53
$GPRMC,213614.000,A,4308.2997,N,07726.2672,W,0.05,182.01,150319,,,D*75
lng=-77.437782, lat=43.138328, altitude=150.90, speed=0.07, satellites=10, angle=182.0100, fixquality=2
$GPGGA,213614.200,4308.2997,N,07726.2672,W,2,10,0.88,150.9,M,-34.4,M,0000,0000*51
$GPRMC,213614.200,A,4308.2997,N,07726.2672,W,0.02,182.01,150319,,,D*70
lng=-77.437782, lat=43.138328, altitude=150.90, speed=0.05, satellites=10, angle=182.0100, fixquality=2
$GPGGA,213614.400,4308.2997,N,07726.2672,W,2,10,0.88,150.9,M,-34.4,M,0000,0000*57
$GPRMC,213614.400,A,4308.2997,N,07726.2672,W,0.02,182.01,150319,,,D*76
lng=-77.437782, lat=43.138328, altitude=150.90, speed=0.02, satellites=10, angle=182.0100, fixquality=2
$GPGGA,213614.600,4308.2997,N,07726.2672,W,2,10,0.88,150.9,M,-34.4,M,0000,0000*55
$GPRMC,213614.600,A,4308.2997,N,07726.2672,W,0.05,182.01,150319,,,D*73
lng=-77.437782, lat=43.138328, altitude=150.90, speed=0.02, satellites=10, angle=182.0100, fixquality=2
$GPGGA,213614.800,4308.2997,N,07726.2672,W,2,10,0.88,150.9,M,-34.4,M,0000,0000*5B
$GPRMC,213614.800,A,4308.2997,N,07726.2672,W,0.07,182.01,15031
lng=-77.437782, lat=43.138328, altitude=150.90, speed=0.05, satellites=10, angle=182.0100, fixquality=2
$GPGGA,213615.000,4308.2997,N,07726.2672,W,2,10,0.88,150.9,M,-34.4,M,0000,0000*52
$GPRMC,213615.000,A,4308.2997,N,07726.2672,W,0.03,182.01,150319,,,D*72
lng=-77.437782, lat=43.138328, altitude=150.90, speed=0.07, satellites=10, angle=182.0100, fixquality=2
$GPGGA,213615.200,4308.2997,N,07726.2672,W,2,10,0.88,150.9,M,-34.4,M,0000,0000*50
$GPRMC,213615.200,A,4308.2997,N,07726.2672,W,0.02,182.01,150319,,,D*71
lng=-77.437782, lat=43.138328, altitude=150.90, speed=0.03, satellites=10, angle=182.0100, fixquality=2
$GPGGA,213615.400,4308.2997,N,07726.2672,W,2,10,0.88,150.9,M,-34.4,M,0000,0000*56
$GPRMC,213615.400,A,4308.2997,N,07726.2672,W,0.02,182.01,150319,,,D*77
lng=-77.437782, lat=43.138328, altitude=150.90, speed=0.02, satellites=10, angle=182.0100, fixquality=2
$GPGGA,213615.600,4308.2997,N,07726.2672,W,2,10,0.88,150.9,M,-34.4,M,0000,0000*54
$GPRMC,213615.600,A,4308.2997,N,07726.2672,W,0.02,182.01,150319,,,D*75
lng=-77.437782, lat=43.138328, altitude=150.90, speed=0.02, satellites=10, angle=182.0100, fixquality=2
$GPGGA,213615.800,4308.2997,N,07726.2672,W,2,10,0.88,150.9,M,-34.4,M,0000,0000*5A
$GPRMC,213615.800,A,4308.2997,N,07726.2672,W,0.03,182.01,150319,,,D*7A
lng=-77.437782, lat=43.138328, altitude=150.90, speed=0.02, satellites=10, angle=182.0100, fixquality=2
$GPGGA,213616.000,4308.2997,N,07726.2672,W,2,10,0.90,150.9,M,-34.4,M,0000,0000*58
$GPRMC,213616.000,A,4308.2997,N,07726.2672,W,0.03,182.01,150319,,,D*71
lng=-77.437782, lat=43.138328, altitude=150.90, speed=0.03, satellites=10, angle=182.0100, fixquality=2
$GPGGA,213616.200,4308.2997,N,07726.2672,W,2,10,0.90,150.9,M,-34.4,M,0000,0000*5A
$GPRMC,213616.200,A,4308.2997,N,07726.2672,W,0.01,182.01,150319,,,D*71
lng=-77.437782, lat=43.138328, altitude=150.90, speed=0.03, satellites=10, angle=182.0100, fixquality=2
$GPGGA,213616.400,4308.2997,N,07726.2672,W,2,10,0.90,150.9,M,-34.4,M,0000,0000*5C
$GPRMC,213616.400,A,4308.2997,N,07726.2672,W,0.00,182.01,15031
lng=-77.437782, lat=43.138328, altitude=150.90, speed=0.01, satellites=10, angle=182.0100, fixquality=2
$GPGGA,213616.600,4308.2997,N,07726.2672,W,2,10,0.90,150.9,M,-34.4,M,0000,0000*5E
$GPRMC,213616.600,A,4308.2997,N,07726.2672,W,0.00,182.01,150319,,,D*74
lng=-77.437782, lat=43.138328, altitude=150.90, speed=0.00, satellites=10, angle=182.0100, fixquality=2
$GPGGA,213616.800,4308.2997,N,07726.2672,W,2,10,0.90,150.9,M,-34.4,M,0000,0000*50
$GPRMC,213616.800,A,4308.2997,N,07726.2672,W,0.00,182.01,150319,,,D*7A
lng=-77.437782, lat=43.138328, altitude=150.90, speed=0.00, satellites=10, angle=182.0100, fixquality=2
$GPGGA,213617.000,4308.2997,N,07726.2672,W,2,10,0.90,150.9,M,-34.4,M,0000,0000*59
$GPRMC,213617.000,A,4308.2997,N,07726.2672,W,0.00,182.01,150319,,,D*73
lng=-77.437782, lat=43.138328, altitude=150.90, speed=0.00, satellites=10, angle=182.0100, fixquality=2
$GPGGA,213617.200,4308.2997,N,07726.2672,W,2,10,0.90,150.9,M,-34.4,M,0000,0000*5B
$GPRMC,213617.200,A,4308.2997,N,07726.2672,W,0.00,182.01,150319,,,D*71
lng=-77.437782, lat=43.138328, altitude=150.90, speed=0.00, satellites=10, angle=182.0100, fixquality=2
$GPGGA,213617.400,4308.2997,N,07726.2672,W,2,10,0.90,150.9,M,-34.4,M,0000,0000*5D
$GPRMC,213617.400,A,4308.2997,N,07726.2672,W,0.00,182.01,150319,,,D*77
lng=-77.437782, lat=43.138328, altitude=150.90, speed=0.00, satellites=10, angle=182.0100, fixquality=2
$GPGGA,213617.600,4308.2997,N,07726.2672,W,2,10,0.90,150.9,M,-34.4,M,0000,0000*5F
$GPRMC,213617.600,A,4308.2997,N,07726.2672,W,0.00,182.01,150319,,,D*75
lng=-77.437782, lat=43.138328, altitude=150.90, speed=0.00, satellites=10, angle=182.0100, fixquality=2
$GPGGA,213617.800,4308.2997,N,07726.2672,W,2,10,0.90,150.9,M,-34.4,M,0000,0000*51
$GPRMC,213617.800,A,4308.2997,N,07726.2672,W,0.00,182.01,150319,,,D*7B
lng=-77.437782, lat=43.138328, altitude=150.90, speed=0.00, satellites=10, angle=182.0100, fixquality=2
$GPGGA,213618.000,4308.2997,N,07726.2672,W,2,10,0.90,150.9,M,-34.4,M,0000,0000*56
$GPRMC,213618.000,A,4308.2997,N,07726.2672,W,0.00,182.01,150319
lng=-77.437782, lat=43.138328, altitude=150.90, speed=0.00, satellites=10, angle=182.0100, fixquality=2
$GPGGA,213618.200,4308.2997,N,07726.2672,W,2,10,0.90,150.9,M,-34.4,M,0000,0000*54
$GPRMC,213618.200,A,4308.2997,N,07726.2672,W,0.00,182.01,150319,,,D*7E
lng=-77.437782, lat=43.138328, altitude=150.90, speed=0.00, satellites=10, angle=182.0100, fixquality=2
$GPGGA,213618.400,4308.2997,N,07726.2672,W,2,10,0.90,150.9,M,-34.4,M,0000,0000*52
$GPRMC,213618.400,A,4308.2997,N,07726.2672,W,0.00,182.01,150319,,,D*78
lng=-77.437782, lat=43.138328, altitude=150.90, speed=0.00, satellites=10, angle=182.0100, fixquality=2
$GPGGA,213618.600,4308.2997,N,07726.2672,W,2,10,0.90,150.9,M,-34.4,M,0000,0000*50
$GPRMC,213618.600,A,4308.2997,N,07726.2672,W,0.00,182.01,150319,,,D*7A
lng=-77.437782, lat=43.138328, altitude=150.90, speed=0.00, satellites=10, angle=182.0100, fixquality=2
$GPGGA,213618.800,4308.2997,N,07726.2672,W,2,10,0.90,150.9,M,-34.4,M,0000,0000*5E
$GPRMC,213618.800,A,4308.2997,N,07726.2672,W,0.00,182.01,150319,,,D*74
lng=-77.437782, lat=43.138328, altitude=150.90, speed=0.00, satellites=10, angle=182.0100, fixquality=2
$GPGGA,213619.000,4308.2997,N,07726.2672,W,2,10,0.90,150.9,M,-34.4,M,0000,0000*57
$GPRMC,213619.000,A,4308.2997,N,07726.2672,W,0.00,182.01,150319,,,D*7D
lng=-77.437782, lat=43.138328, altitude=150.90, speed=0.00, satellites=10, angle=182.0100, fixquality=2
$GPGGA,213619.200,4308.2997,N,07726.2672,W,2,10,0.90,150.9,M,-34.4,M,0000,0000*55
$GPRMC,213619.200,A,4308.2997,N,07726.2672,W,0.00,182.01,150319,,,D*7F
lng=-77.437782, lat=43.138328, altitude=150.90, speed=0.00, satellites=10, angle=182.0100, fixquality=2
$GPGGA,213619.400,4308.2997,N,07726.2672,W,2,10,0.90,150.9,M,-34.4,M,0000,0000*53
$GPRMC,213619.400,A,4308.2997,N,07726.2672,W,0.00,182.01,150319,,,D*79
lng=-77.437782, lat=43.138328, altitude=150.90, speed=0.00, satellites=10, angle=182.0100, fixquality=2
$GPGGA,213619.600,4308.2997,N,07726.2672,W,2,10,0.90,150.9,M,-34.4,M,0000,0000*51
$GPRMC,213619.600,A,4308.2997,N,07726.2672,W,0.00,182.01,15031
lng=-77.437782, lat=43.138328, altitude=150.90, speed=0.00, satellites=10, angle=182.0100, fixquality=2
$GPGGA,213619.800,4308.2997,N,07726.2672,W,2,10,0.90,150.9,M,-34.4,M,0000,0000*5F
$GPRMC,213619.800,A,4308.2997,N,07726.2672,W,0.01,182.01,150319,,,D*74
lng=-77.437782, lat=43.138328, altitude=150.90, speed=0.00, satellites=10, angle=182.0100, fixquality=2
$GPGGA,213620.000,4308.2997,N,07726.2672,W,2,10,0.90,150.9,M,-34.4,M,0000,0000*5D
$GPRMC,213620.000,A,4308.2997,N,07726.2672,W,0.00,182.01,150319,,,D*77
lng=-77.437782, lat=43.138328, altitude=150.90, speed=0.01, satellites=10, angle=182.0100, fixquality=2
$GPGGA,213620.200,4308.2997,N,07726.2672,W,2,10,0.88,150.9,M,-34.4,M,0000,0000*56
$GPRMC,213620.200,A,4308.2997,N,07726.2672,W,0.01,182.01,150319,,,D*74
lng=-77.437782, lat=43.138328, altitude=150.90, speed=0.00, satellites=10, angle=182.0100, fixquality=2
$GPGGA,213620.400,4308.2997,N,07726.2672,W,2,10,0.90,150.9,M,-34.4,M,0000,0000*59
$GPRMC,213620.400,A,4308.2997,N,07726.2672,W,0.00,182.01,150319,,,D*73
lng=-77.437782, lat=43.138328, altitude=150.90, speed=0.01, satellites=10, angle=182.0100, fixquality=2
$GPGGA,213620.600,4308.2997,N,07726.2672,W,2,10,0.90,150.9,M,-34.4,M,0000,0000*5B
$GPRMC,213620.600,A,4308.2997,N,07726.2672,W,0.00,182.01,150319,,,D*71
lng=-77.437782, lat=43.138328, altitude=150.90, speed=0.00, satellites=10, angle=182.0100, fixquality=2
$GPGGA,213620.800,4308.2997,N,07726.2672,W,2,10,0.90,150.9,M,-34.4,M,0000,0000*55
$GPRMC,213620.800,A,4308.2997,N,07726.2672,W,0.00,182.01,150319,,,D*7F
lng=-77.437782, lat=43.138328, altitude=150.90, speed=0.00, satellites=10, angle=182.0100, fixquality=2
$GPGGA,213621.000,4308.2997,N,07726.2672,W,2,10,0.90,150.9,M,-34.4,M,0000,0000*5C
$GPRMC,213621.000,A,4308.2997,N,07726.2672,W,0.00,182.01,150319,,,D*76
lng=-77.437782, lat=43.138328, altitude=150.90, speed=0.00, satellites=10, angle=182.0100, fixquality=2
$GPGGA,213621.200,4308.2997,N,07726.2672,W,2,10,0.90,150.9,M,-34.4,M,0000,0000*5E
$GPRMC,213621.200,A,4308.2997,N,07726.2672,W,0.00,182.01,150319
lng=-77.437782, lat=43.138328, altitude=150.90, speed=0.00, satellites=10, angle=182.0100, fixquality=2
$GPGGA,213621.400,4308.2997,N,07726.2672,W,2,10,0.90,150.9,M,-34.4,M,0000,0000*58
$GPRMC,213621.400,A,4308.2997,N,07726.2672,W,0.00,182.01,150319,,,D*72
lng=-77.437782, lat=43.138328, altitude=150.90, speed=0.00, satellites=10, angle=182.0100, fixquality=2
$GPGGA,213621.600,4308.2997,N,07726.2672,W,2,10,0.90,150.9,M,-34.4,M,0000,0000*5A
$GPRMC,213621.600,A,4308.2997,N,07726.2672,W,0.00,182.01,150319,,,D*70
lng=-77.437782, lat=43.138328, altitude=150.90, speed=0.00, satellites=10, angle=182.0100, fixquality=2
$GPGGA,213621.800,4308.2997,N,07726.2672,W,2,10,0.90,150.9,M,-34.4,M,0000,0000*54
$GPRMC,213621.800,A,4308.2997,N,07726.2672,W,0.00,182.01,150319,,,D*7E
lng=-77.437782, lat=43.138328, altitude=150.90, speed=0.00, satellites=10, angle=182.0100, fixquality=2
$GPGGA,213622.000,4308.2997,N,07726.2672,W,2,10,0.90,150.9,M,-34.4,M,0000,0000*5F
$GPRMC,213622.000,A,4308.2997,N,07726.2672,W,0.00,182.01,150319,,,D*75
lng=-77.437782, lat=43.138328, altitude=150.90, speed=0.00, satellites=10, angle=182.0100, fixquality=2
$GPGGA,213622.200,4308.2997,N,07726.2672,W,2,10,0.90,150.9,M,-34.4,M,0000,0000*5D
$GPRMC,213622.200,A,4308.2997,N,07726.2672,W,0.00,182.01,150319,,,D*77
lng=-77.437782, lat=43.138328, altitude=150.90, speed=0.00, satellites=10, angle=182.0100, fixquality=2
$GPGGA,213622.400,4308.2997,N,07726.2672,W,2,10,0.90,150.9,M,-34.4,M,0000,0000*5B
$GPRMC,213622.400,A,4308.2997,N,07726.2672,W,0.00,182.01,15031
lng=-77.437782, lat=43.138328, altitude=150.90, speed=0.00, satellites=10, angle=182.0100, fixquality=2
$GPGGA,213622.600,4308.2997,N,07726.2672,W,2,10,0.90,150.9,M,-34.4,M,0000,0000*59
$GPRMC,213622.600,A,4308.2997,N,07726.2672,W,0.00,182.01,150319,,,D*73
lng=-77.437782, lat=43.138328, altitude=150.90, speed=0.00, satellites=10, angle=182.0100, fixquality=2
$GPGGA,213622.800,4308.2997,N,07726.2672,W,2,10,0.90,150.9,M,-34.4,M,0000,0000*57
$GPRMC,213622.800,A,4308.2997,N,07726.2672,W,0.00,182.01,150319,,,D*7D
lng=-77.437782, lat=43.138328, altitude=150.90, speed=0.00, satellites=10, angle=182.0100, fixquality=2
$GPGGA,213623.000,4308.2997,N,07726.2672,W,2,10,0.90,150.9,M,-34.4,M,0000,0000*5E
$GPRMC,213623.000,A,4308.2997,N,07726.2672,W,0.00,182.01,150319,,,D*74
lng=-77.437782, lat=43.138328, altitude=150.90, speed=0.00, satellites=10, angle=182.0100, fixquality=2
$GPGGA,213623.200,4308.2997,N,07726.2672,W,2,10,0.90,150.9,M,-34.4,M,0000,0000*5C
$GPRMC,213623.200,A,4308.2997,N,07726.2672,W,0.00,182.01,150319,,,D*76
lng=-77.437782, lat=43.138328, altitude=150.90, speed=0.00, satellites=10, angle=182.0100, fixquality=2
$GPGGA,213623.400,4308.2997,N,07726.2672,W,2,10,0.90,150.9,M,-34.4,M,0000,0000*5A
$GPRMC,213623.400,A,4308.2997,N,07726.2672,W,0.00,182.01,150319,,,D*70
lng=-77.437782, lat=43.138328, altitude=150.90, speed=0.00, satellites=10, angle=182.0100, fixquality=2
$GPGGA,213623.600,4308.2997,N,07726.2672,W,2,10,0.90,150.9,M,-34.4,M,0000,0000*58
$GPRMC,213623.600,A,4308.2997,N,07726.2672,W,0.00,182.01,150319,,,D*72
lng=-77.437782, lat=43.138328, altitude=150.90, speed=0.00, satellites=10, angle=182.0100, fixquality=2
$GPGGA,213623.800,4308.2997,N,07726.2672,W,2,10,0.90,150.9,M,-34.4,M,0000,0000*56
$GPRMC,213623.800,A,4308.2997,N,07726.2672,W,0.00,182.01,150319,,,D*7C
lng=-77.437782, lat=43.138328, altitude=150.90, speed=0.00, satellites=10, angle=182.0100, fixquality=2
$GPGGA,213624.000,4308.2997,N,07726.2672,W,2,10,0.90,150.9,M,-34.4,M,0000,0000*59
$GPRMC,213624.000,A,4308.2997,N,07726.2672,W,0.00,182.01,150319
lng=-77.437782, lat=43.138328, altitude=150.90, speed=0.00, satellites=10, angle=182.0100, fixquality=2
$GPGGA,213624.200,4308.2997,N,07726.2672,W,2,10,0.90,150.9,M,-34.4,M,0000,0000*5B
$GPRMC,213624.200,A,4308.2997,N,07726.2672,W,0.00,182.01,150319,,,D*71
lng=-77.437782, lat=43.138328, altitude=150.90, speed=0.00, satellites=10, angle=182.0100, fixquality=2
$GPGGA,213624.400,4308.2997,N,07726.2672,W,2,10,0.90,150.9,M,-34.4,M,0000,0000*5D
$GPRMC,213624.400,A,4308.2997,N,07726.2672,W,0.00,182.01,150319,,,D*77
lng=-77.437782, lat=43.138328, altitude=150.90, speed=0.00, satellites=10, angle=182.0100, fixquality=2
$GPGGA,213624.600,4308.2997,N,07726.2672,W,2,10,0.90,150.9,M,-34.4,M,0000,0000*5F
$GPRMC,213624.600,A,4308.2997,N,07726.2672,W,0.00,182.01,150319,,,D*75
lng=-77.437782, lat=43.138328, altitude=150.90, speed=0.00, satellites=10, angle=182.0100, fixquality=2
$GPGGA,213624.800,4308.2997,N,07726.2672,W,2,10,0.90,150.9,M,-34.4,M,0000,0000*51
$GPRMC,213624.800,A,4308.2997,N,07726.2672,W,0.00,182.01,150319,,,D*7B
lng=-77.437782, lat=43.138328, altitude=150.90, speed=0.00, satellites=10, angle=182.0100, fixquality=2
$GPGGA,213625.000,4308.2997,N,07726.2672,W,2,10,0.90,150.9,M,-34.4,M,0000,0000*58
$GPRMC,213625.000,A,4308.2997,N,07726.2672,W,0.00,182.01,150319,,,D*72
lng=-77.437782, lat=43.138328, altitude=150.90, speed=0.00, satellites=10, angle=182.0100, fixquality=2
$GPGGA,213625.200,4308.2997,N,07726.2672,W,2,10,0.90,150.9,M,-34.4,M,0000,0000*5A
$GPRMC,213625.200,A,4308.2997,N,07726.2672,W,0.00,182.01,150319,,,D*70
lng=-77.437782, lat=43.138328, altitude=150.90, speed=0.00, satellites=10, angle=182.0100, fixquality=2
$GPGGA,213625.400,4308.2997,N,07726.2672,W,2,10,0.90,150.9,M,-34.4,M,0000,0000*5C
$GPRMC,213625.400,A,4308.2997,N,07726.2672,W,0.00,182.01,150319,,,D*76
lng=-77.437782, lat=43.138328, altitude=150.90, speed=0.00, satellites=10, angle=182.0100, fixquality=2
$GPGGA,213625.600,4308.2997,N,07726.2672,W,2,10,0.90,150.9,M,-34.4,M,0000,0000*5E
$GPRMC,213625.600,A,4308.2997,N,07726.2672,W,0.00,182.01,1503194
lng=-77.437782, lat=43.138328, altitude=150.90, speed=0.00, satellites=10, angle=182.0100, fixquality=2
$GPGGA,213625.800,4308.2997,N,07726.2672,W,2,10,0.90,150.9,M,-34.4,M,0000,0000*50
$GPRMC,213625.800,A,4308.2997,N,07726.2672,W,0.00,182.01,150319,,,D*7A
lng=-77.437782, lat=43.138328, altitude=150.90, speed=0.00, satellites=10, angle=182.0100, fixquality=2
$GPGGA,213626.000,4308.2997,N,07726.2672,W,2,10,0.90,150.9,M,-34.4,M,0000,0000*5B
$GPRMC,213626.000,A,4308.2997,N,07726.2672,W,0.00,182.01,150319,,,D*71
lng=-77.437782, lat=43.138328, altitude=150.90, speed=0.00, satellites=10, angle=182.0100, fixquality=2
$GPGGA,213626.200,4308.2997,N,07726.2672,W,2,10,0.90,150.9,M,-34.4,M,0000,0000*59
$GPRMC,213626.200,A,4308.2997,N,07726.2672,W,0.00,182.01,150319,,,D*73
lng=-77.437782, lat=43.138328, altitude=150.90, speed=0.00, satellites=10, angle=182.0100, fixquality=2
$GPGGA,213626.400,4308.2997,N,07726.2672,W,2,10,0.90,150.9,M,-34.4,M,0000,0000*5F
$GPRMC,213626.400,A,4308.2997,N,07726.2672,W,0.00,182.01,150319,,,D*75
lng=-77.437782, lat=43.138328, altitude=150.90, speed=0.00, satellites=10, angle=182.0100, fixquality=2
$GPGGA,213626.600,4308.2997,N,07726.2672,W,2,10,0.90,150.9,M,-34.4,M,0000,0000*5D
$GPRMC,213626.600,A,4308.2997,N,07726.2672,W,0.00,182.01,150319,,,D*77
lng=-77.437782, lat=43.138328, altitude=150.90, speed=0.00, satellites=10, angle=182.0100, fixquality=2
$GPGGA,213626.800,4308.2997,N,07726.2672,W,2,10,0.90,150.9,M,-34.4,M,0000,0000*53
$GPRMC,213626.800,A,4308.2997,N,07726.2672,W,0.00,182.01,150319
lng=-77.437782, lat=43.138328, altitude=150.90, speed=0.00, satellites=10, angle=182.0100, fixquality=2
$GPGGA,213627.000,4308.2997,N,07726.2672,W,2,10,0.90,150.9,M,-34.4,M,0000,0000*5A
$GPRMC,213627.000,A,4308.2997,N,07726.2672,W,0.00,182.01,150319,,,D*70
lng=-77.437782, lat=43.138328, altitude=150.90, speed=0.00, satellites=10, angle=182.0100, fixquality=2
$GPGGA,213627.200,4308.2997,N,07726.2672,W,2,10,0.90,150.9,M,-34.4,M,0000,0000*58
$GPRMC,213627.200,A,4308.2997,N,07726.2672,W,0.00,182.01,150319,,,D*72
lng=-77.437782, lat=43.138328, altitude=150.90, speed=0.00, satellites=10, angle=182.0100, fixquality=2
$GPGGA,213627.400,4308.2997,N,07726.2672,W,2,09,1.19,150.9,M,-34.4,M,0000,0000*56
$GPRMC,213627.400,A,4308.2997,N,07726.2672,W,0.00,182.01,150319,,,D*74
lng=-77.437782, lat=43.138328, altitude=150.90, speed=0.00, satellites=9, angle=182.0100, fixquality=2
$GPGGA,213627.600,4308.2997,N,07726.2672,W,2,09,1.20,150.9,M,-34.4,M,0000,0000*5E
$GPRMC,213627.600,A,4308.2997,N,07726.2672,W,0.00,182.01,150319,,,D*76
lng=-77.437782, lat=43.138328, altitude=150.90, speed=0.00, satellites=9, angle=182.0100, fixquality=2
$GPGGA,213627.800,4308.2997,N,07726.2672,W,2,09,1.19,150.9,M,-34.4,M,0000,0000*5A
$GPRMC,213627.800,A,4308.2997,N,07726.2672,W,0.00,182.01,150319,,,D*78
lng=-77.437782, lat=43.138328, altitude=150.90, speed=0.00, satellites=9, angle=182.0100, fixquality=2
$GPGGA,213628.000,4308.2997,N,07726.2672,W,2,09,1.20,150.9,M,-34.4,M,0000,0000*57
$GPRMC,213628.000,A,4308.2997,N,07726.2672,W,0.00,182.01,150319,,,D*7F
lng=-77.437782, lat=43.138328, altitude=150.90, speed=0.00, satellites=9, angle=182.0100, fixquality=2
$GPGGA,213628.200,4308.2997,N,07726.2672,W,2,09,1.20,150.9,M,-34.4,M,0000,0000*55
$GPRMC,213628.200,A,4308.2997,N,07726.2672,W,0.00,182.01,150319,,,D*7D
lng=-77.437782, lat=43.138328, altitude=150.90, speed=0.00, satellites=9, angle=182.0100, fixquality=2
$GPGGA,213628.400,4308.2997,N,07726.2672,W,2,09,1.20,150.9,M,-34.4,M,0000,0000*53
$GPRMC,213628.400,A,4308.2997,N,07726.2672,W,0.00,182.01,150319,,,D*7B
lng=-77.437782, lat=43.138328, altitude=150.90, speed=0.00, satellites=9, angle=182.0100, fixquality=2
$GPGGA,213628.600,4308.2997,N,07726.2672,W,2,09,1.20,150.9,M,-34.4,M,0000,0000*51
$GPRMC,213628.600,A,4308.2997,N,07726.2672,W,0.00,182.01,150319,,,D*79
lng=-77.437782, lat=43.138328, altitude=150.90, speed=0.00, satellites=9, angle=182.0100, fixquality=2
$GPGGA,213628.800,4308.2997,N,07726.2672,W,2,09,1.20,150.9,M,-34.4,M,0000,0000*5F
$GPRMC,213628.800,A,4308.2997,N,07726.2672,W,0.00,182.01,150319,,,D*77
lng=-77.437782, lat=43.138328, altitude=150.90, speed=0.00, satellites=9, angle=182.0100, fixquality=2
$GPGGA,213629.000,4308.2997,N,07726.2672,W,2,09,1.20,150.9,M,-34.4,M,0000,0000*56
$GPRMC,213629.000,A,4308.2997,N,07726.2672,W,0.00,182.01,150319,,,D*7E
lng=-77.437782, lat=43.138328, altitude=150.90, speed=0.00, satellites=9, angle=182.0100, fixquality=2
$GPGGA,213629.200,4308.2997,N,07726.2672,W,2,09,1.20,150.9,M,-34.4,M,0000,0000*54
$GPRMC,213629.200,A,4308.2997,N,07726.2672,W,0.00,182.01,150319,,,D*7C
lng=-77.437782, lat=43.138328, altitude=150.90, speed=0.00, satellites=9, angle=182.0100, fixquality=2
$GPGGA,213629.400,4308.2997,N,07726.2672,W,2,09,1.20,150.9,M,-34.4,M,0000,0000*52
$GPRMC,213629.400,A,4308.2997,N,07726.2672,W,0.00,182.01,150319,,,D*7A
lng=-77.437782, lat=43.138328, altitude=150.90, speed=0.00, satellites=9, angle=182.0100, fixquality=2
$GPGGA,213629.600,4308.2997,N,07726.2672,W,2,09,1.20,150.9,M,-34.4,M,0000,0000*50
$GPRMC,213629.600,A,4308.2997,N,07726.2672,W,0.00,182.01,150319,,,D*78
lng=-77.437782, lat=43.138328, altitude=150.90, speed=0.00, satellites=9, angle=182.0100, fixquality=2
$GPGGA,213629.800,4308.2997,N,07726.2672,W,2,09,1.20,150.9,M,-34.4,M,0000,0000*5E
$GPRMC,213629.800,A,4308.2997,N,07726.2672,W,0.00,182.01,150319,,,D*76
lng=-77.437782, lat=43.138328, altitude=150.90, speed=0.00, satellites=9, angle=182.0100, fixquality=2
$GPGGA,213630.000,4308.2997,N,07726.2672,W,2,09,1.20,150.9,M,-34.4,M,0000,0000*5E
$GPRMC,213630.000,A,4308.2997,N,07726.2672,W,0.00,182.01,150319,,,D*76
lng=-77.437782, lat=43.138328, altitude=150.90, speed=0.00, satellites=9, angle=182.0100, fixquality=2
$GPGGA,213630.200,4308.2997,N,07726.2672,W,2,09,1.20,150.9,M,-34.4,M,0000,0000*5C
$GPRMC,213630.200,A,4308.2997,N,07726.2672,W,0.00,182.01,150319,,,D*74
lng=-77.437782, lat=43.138328, altitude=150.90, speed=0.00, satellites=9, angle=182.0100, fixquality=2
$GPGGA,213630.400,4308.2997,N,07726.2672,W,2,09,1.20,150.9,M,-34.4,M,0000,0000*5A
$GPRMC,213630.400,A,4308.2997,N,07726.2672,W,0.00,182.01,150319,,,D*72
lng=-77.437782, lat=43.138328, altitude=150.90, speed=0.00, satellites=9, angle=182.0100, fixquality=2
$GPGGA,213630.600,4308.2997,N,07726.2672,W,2,09,1.20,150.9,M,-34.4,M,0000,0000*58
$GPRMC,213630.600,A,4308.2997,N,07726.2672,W,0.00,182.01,150319,,,D*70
lng=-77.437782, lat=43.138328, altitude=150.90, speed=0.00, satellites=9, angle=182.0100, fixquality=2
$GPGGA,213630.800,4308.2997,N,07726.2672,W,2,09,1.20,150.9,M,-34.4,M,0000,0000*56
$GPRMC,213630.800,A,4308.2997,N,07726.2672,W,0.01,182.01,150319,,,D*7F
lng=-77.437782, lat=43.138328, altitude=150.90, speed=0.00, satellites=9, angle=182.0100, fixquality=2
$GPGGA,213631.000,4308.2997,N,07726.2672,W,2,09,1.20,150.9,M,-34.4,M,0000,0000*5F
$GPRMC,213631.000,A,4308.2997,N,07726.2672,W,0.00,182.01,150319,,,D*77
lng=-77.437782, lat=43.138328, altitude=150.90, speed=0.01, satellites=9, angle=182.0100, fixquality=2
$GPGGA,213631.200,4308.2997,N,07726.2672,W,2,09,1.20,150.9,M,-34.4,M,0000,0000*5D
$GPRMC,213631.200,A,4308.2997,N,07726.2672,W,0.01,182.01,150319,,,D*74
